TimeMS,Input,Output_1,Output_2
0.000000,2047,1903,1770
0.020833,2767,1921,1767
0.041667,3385,1928,1796
0.062500,3813,1932,1804
0.083333,3988,1935,1807
0.104167,3888,1924,1796
0.125000,3525,1924,1794
0.145833,2952,1935,1833
0.166667,2250,1991,1967
0.187500,1519,2183,2402
0.208333,863,2411,2991
0.229167,375,2634,2991
0.250000,126,2635,2990
0.270833,150,2274,2990
0.291667,444,1582,1511
0.312500,966,943,961
0.333333,2047,943,960
0.354167,2047,943,943
0.375000,2047,943,960
0.395833,2047,943,960
0.416667,2047,1190,960
0.437500,2047,2272,1804
0.458333,2047,2980,2990
0.479167,2047,2980,2991
0.500000,2047,2981,2991
0.520833,2047,2980,2990
0.541667,2047,2980,2991
0.562500,2047,2980,2991
0.583333,2047,1825,2339
0.604167,2047,943,960
0.625000,2047,943,961
0.645833,2047,943,961
0.666667,2047,943,960
0.687500,2047,943,943
0.708333,2047,1280,960
0.729167,2047,2253,1603
0.750000,2047,2920,2991
0.770833,2047,2979,2991
0.791667,2047,2980,2991
0.812500,2047,2980,2991
0.833333,2047,2980,2991
0.854167,2047,2980,2991
0.875000,2047,2980,2990
0.895833,2047,2980,2991
0.916667,2047,2895,2991
0.937500,2047,1704,1763
0.958333,2047,943,960
0.979167,2047,943,960
1.000000,2047,943,960
1.020833,2047,943,961
1.041667,2047,961,960
1.062500,2047,1600,960
1.083333,2047,2094,1165
1.104167,2047,2287,2250
1.125000,2047,2315,2991
1.145833,2047,2446,2991
1.166667,2047,2849,2991
1.187500,2047,2980,2991
1.208333,2047,2980,2991
1.229167,2047,2980,2991
1.250000,2047,2980,2990
1.270833,2047,2279,2824
1.291667,2047,1159,960
1.312500,2047,943,960
1.333333,2047,943,960
1.354167,2047,943,960
1.375000,2047,943,960
1.395833,2047,1416,960
1.416667,2047,1894,961
1.437500,2047,2181,1828
1.458333,2047,2251,2728
1.479167,2047,2318,2991
1.500000,2047,2505,2990
1.520833,2047,2827,2991
1.541667,2047,2980,2991
1.562500,2047,2980,2991
1.583333,2047,2981,2991
1.604167,2047,2596,2991
1.625000,2047,1926,2408
1.645833,2047,1284,961
1.666667,2047,943,943
1.687500,2047,943,943
1.708333,2047,999,960
1.729167,2047,1290,960
1.750000,2047,1611,960
1.770833,2047,1867,995
1.791667,2047,2053,1798
1.812500,2047,2215,2600
1.833333,2047,2406,2991
1.854167,2047,2600,2991
1.875000,2047,2756,2990
1.895833,2047,2798,2991
1.916667,2047,2727,2991
1.937500,2047,2472,2991
1.958333,2047,2158,2991
1.979167,2047,1774,2254
2.000000,2047,1487,1090
2.020833,2047,1324,960
2.041667,2047,1250,961
2.062500,2047,1295,961
2.083333,2047,1422,943
2.104167,2047,1614,960
2.125000,2047,1863,1093
2.145833,2047,2122,1959
2.166667,2047,2378,2945
2.187500,2047,2540,2991
2.208333,2047,2630,2991
2.229167,2047,2607,2991
2.250000,2047,2500,2991
2.270833,2047,2318,2991
2.291667,2047,2119,2990
2.312500,2047,1903,2530
2.333333,2047,1771,1804
2.354167,2047,1638,1067
2.375000,2047,1571,943
2.395833,2047,1512,943
2.416667,2047,1547,960
2.437500,2047,1643,960
2.458333,2047,1806,1197
2.479167,2047,2060,2022
2.500000,2047,2308,2959
2.520833,2047,2466,2991
2.541667,2047,2534,2990
2.562500,2047,2510,2991
2.583333,2047,2371,2990
2.604167,2047,2220,2990
2.625000,2047,2059,2702
2.645833,2047,1896,2339
2.666667,2047,1824,1990
2.687500,2047,1739,1610
2.708333,2047,1704,1219
2.729167,2047,1669,960
2.750000,2047,1667,960
2.770833,2047,1699,960
2.791667,2047,1824,1103
2.812500,2047,1985,1647
2.833333,2047,2177,2341
2.854167,2047,2318,2923
2.875000,2047,2382,2990
2.895833,2047,2348,2991
2.916667,2047,2273,2991
2.937500,2047,2145,2795
2.958333,2047,1988,2440
2.979167,2047,1889,2112
3.000000,2047,1838,1801
3.020833,2047,1769,1506
3.041667,2047,1728,1199
3.062500,2047,1703,960
3.083333,2047,1676,960
3.104167,2047,1677,960
3.125000,2047,1702,960
3.145833,2047,1795,1157
3.166667,2047,1921,1743
3.187500,2047,2092,2280
3.208333,2047,2187,2730
3.229167,2047,2243,2888
3.250000,2047,2243,2794
3.270833,2047,2145,2475
3.291667,2047,2019,2115
3.312500,2047,1869,1697
3.333333,2047,1767,1377
3.354167,2047,1677,1124
3.375000,2047,1634,961
3.395833,2047,1611,960
3.416667,2047,1641,960
3.437500,2047,1708,961
3.458333,2047,1774,996
3.479167,2047,1825,1280
3.500000,2047,1889,1575
3.520833,2047,1965,1865
3.541667,2047,1999,2094
3.562500,2047,2062,2217
3.583333,2047,2092,2273
3.604167,2047,2116,2244
3.625000,2047,2094,2154
3.645833,2047,2023,2030
3.666667,2047,1927,1895
3.687500,2047,1836,1709
3.708333,2047,1766,1474
3.729167,2047,1707,1281
3.750000,2047,1676,1157
3.770833,2047,1709,1122
3.791667,2047,1775,1190
3.812500,2047,1863,1415
3.833333,2047,1962,1669
3.854167,2047,2025,1903
3.875000,2047,2080,2115
3.895833,2047,2091,2249
3.916667,2047,2084,2273
3.937500,2047,2053,2243
3.958333,2047,2027,2189
3.979167,2047,1996,2063
4.000000,2047,1958,1955
4.020833,2047,1893,1798
4.041667,2047,1839,1639
4.062500,2047,1793,1506
4.083333,2047,1768,1415
4.104167,2047,1766,1348
4.125000,2047,1803,1344
4.145833,2047,1826,1378
4.166667,2047,1862,1447
4.187500,2047,1892,1510
4.208333,2047,1929,1572
4.229167,2047,1924,1635
4.250000,2047,1934,1699
4.270833,2047,1961,1805
4.291667,2047,1958,1899
4.312500,2047,1986,1994
4.333333,2047,1986,2029
4.354167,2047,1954,2019
4.375000,2047,1927,1958
4.395833,2047,1890,1865
4.416667,2047,1866,1795
4.437500,2047,1860,1740
4.458333,2047,1871,1767
4.479167,2047,1903,1830
4.500000,2047,1959,1898
4.520833,2047,1995,1995
4.541667,2047,2023,2056
4.562500,2047,2020,2083
4.583333,2047,2025,2119
4.604167,2047,2026,2152
4.625000,2047,2022,2188
4.645833,2047,2020,2222
4.666667,2047,2029,2240
4.687500,2047,1999,2242
4.708333,2047,1985,2241
4.729167,2047,1989,2219
4.750000,2047,1961,2186
4.770833,2047,1960,2183
4.791667,2047,1962,2208
4.812500,2047,1985,2219
4.833333,2047,1996,2221
4.854167,2047,1991,2187
4.875000,2047,1999,2157
4.895833,2047,2022,2125
4.916667,2047,2027,2122
4.937500,2047,2028,2125
4.958333,2047,2021,2145
4.979167,2047,2018,2176
5.000000,2047,1998,2191
5.020833,2047,1987,2216
5.041667,2047,1986,2255
5.062500,2047,1999,2255
5.083333,2047,1985,2282
5.104167,2047,1991,2274
5.125000,2047,1989,2281
5.145833,2047,1987,2242
5.166667,2047,1999,2220
5.187500,2047,1998,2176
5.208333,2047,1989,2127
5.229167,2047,2020,2117
5.250000,2047,2020,2125
5.270833,2047,2030,2149
5.291667,2047,2052,2188
5.312500,2047,2054,2187
5.333333,2047,1997,2152
5.354167,2047,1988,2115
5.375000,2047,1963,2094
5.395833,2047,1954,2086
5.416667,2047,1959,2113
5.437500,2047,1959,2157
5.458333,2047,1999,2254
5.479167,2047,2017,2312
5.500000,2047,2027,2315
5.520833,2047,2029,2285
5.541667,2047,2022,2215
5.562500,2047,2017,2126
5.583333,2047,1999,2059
5.604167,2047,1997,2019
5.625000,2047,1996,2023
5.645833,2047,1991,2031
5.666667,2047,1992,2024
5.687500,2047,1964,2030
5.708333,2047,1953,2057
5.729167,2047,1963,2059
5.750000,2047,1953,2114
5.770833,2047,1963,2155
5.791667,2047,1992,2240
5.812500,2047,1990,2279
5.833333,2047,1999,2319
5.854167,2047,2023,2310
5.875000,2047,2030,2275
5.895833,2047,2020,2219
5.916667,2047,2029,2190
5.937500,2047,2056,2188
5.958333,2047,2052,2153
5.979167,2047,2056,2118
6.000000,2047,1992,2054
6.020833,2047,1963,1999
6.041667,2047,1933,1933
6.062500,2047,1934,1899
6.083333,2047,1931,1898
6.104167,2047,1922,1960
6.125000,2047,1934,2051
6.145833,2047,1965,2117
6.166667,2047,1955,2118
6.187500,2047,1967,2089
6.208333,2047,1955,1992
6.229167,2047,1924,1860
6.250000,2047,1928,1738
6.270833,2047,1902,1611
6.291667,2047,1899,1543
6.312500,2047,1897,1506
6.333333,2047,1888,1505
6.354167,2047,1893,1484
6.375000,2047,1864,1485
6.395833,2047,1871,1509
6.416667,2047,1863,1515
6.437500,2047,1868,1568
6.458333,2047,1861,1641
6.479167,2047,1894,1730
6.500000,2047,1898,1830
6.520833,2047,1931,1865
6.541667,2047,1934,1893
6.562500,2047,1931,1869
6.583333,2047,1932,1807
6.604167,2047,1925,1760
6.625000,2047,1902,1701
6.645833,2047,1895,1639
6.666667,2047,1900,1607
6.687500,2047,1891,1611
6.708333,2047,1867,1609
6.729167,2047,1867,1606
6.750000,2047,1871,1643
6.770833,2047,1898,1698
6.791667,2047,1895,1764
6.812500,2047,1903,1838
6.833333,2047,1925,1859
6.854167,2047,1927,1867
6.875000,2047,1929,1865
6.895833,2047,1925,1832
6.916667,2047,1921,1794
6.937500,2047,1903,1760
6.958333,2047,1903,1736
6.979167,2047,1903,1700
7.000000,2047,1920,1701
7.020833,2047,1903,1668
7.041667,2047,1900,1675
7.062500,2047,1894,1676
7.083333,2047,1893,1700
7.104167,2047,1899,1742
7.125000,2047,1925,1798
7.145833,2047,1923,1862
7.166667,2047,1933,1895
7.187500,2047,1960,1930
7.208333,2047,1966,1963
7.229167,2047,1964,1956
7.250000,2047,1959,1934
7.270833,2047,1953,1891
7.291667,2047,1933,1864
7.312500,2047,1952,1857
7.333333,2047,1953,1836
7.354167,2047,1953,1803
7.375000,2047,1931,1793
7.395833,2047,1926,1798
7.416667,2047,1923,1836
7.437500,2047,1924,1866
7.458333,2047,1931,1935
7.479167,2047,1958,1986
7.500000,2047,1967,2020
7.520833,2047,1962,2019
7.541667,2047,1965,2028
7.562500,2047,1967,2026
7.583333,2047,1967,2019
7.604167,2047,1961,2017
7.625000,2047,1958,1991
7.645833,2047,1954,1964
7.666667,2047,1966,1925
7.687500,2047,1963,1923
7.708333,2047,1957,1899
7.729167,2047,1955,1921
7.750000,2047,1956,1933
7.770833,2047,1960,1988
7.791667,2047,1955,2024
7.812500,2047,1965,2094
7.833333,2047,1993,2115
7.854167,2047,1985,2149
7.875000,2047,1986,2149
7.895833,2047,1984,2122
7.916667,2047,1996,2121
7.937500,2047,1990,2114
7.958333,2047,1990,2093
7.979167,2047,1991,2087
8.000000,2047,1994,2090
8.020834,2047,1993,2059
8.041667,2047,1991,2061
8.062500,2047,1987,2050
8.083334,2047,1966,2054
8.104167,2047,1959,2062
8.125000,2047,1957,2062
8.145834,2047,1956,2094
8.166667,2047,1959,2089
8.187500,2047,1961,2085
8.208334,2047,1963,2090
8.229167,2047,1963,2054
8.250000,2047,1958,2050
8.270834,2047,1953,2029
8.291667,2047,1959,1991
8.312500,2047,1955,1967
8.333334,2047,1935,1963
8.354167,2047,1952,1927
8.375000,2047,1958,1934
8.395834,2047,1963,1935
8.416667,2047,1956,1956
8.437500,2047,1986,1988
8.458334,2047,1998,2058
8.479167,2047,1990,2150
8.500000,2047,1999,2216
8.520834,2047,2019,2249
8.541667,2047,2019,2284
8.562500,2047,1997,2255
8.583334,2047,1990,2223
8.604167,2047,1999,2182
8.625000,2047,1995,2151
8.645834,2047,1994,2116
8.666667,2047,1993,2094
8.687500,2047,1997,2086
8.708334,2047,1998,2086
8.729167,2047,1986,2094
8.750000,2047,1989,2088
8.770834,2047,1989,2119
8.791667,2047,1994,2127
8.812500,2047,1993,2148
8.833334,2047,1995,2185
8.854167,2047,1995,2182
8.875000,2047,1997,2184
8.895834,2047,1997,2190
8.916667,2047,1994,2154
8.937500,2047,1992,2154
8.958334,2047,1987,2114
8.979167,2047,1984,2091
9.000000,2047,1994,2082
9.020834,2047,1986,2051
9.041667,2047,1965,2023
9.062500,2047,1958,1997
9.083334,2047,1953,1965
9.104167,2047,1967,1958
9.125000,2047,1963,1957
9.145834,2047,1964,1985
9.166667,2047,1965,1988
9.187500,2047,1967,2017
9.208334,2047,1953,2019
9.229167,2047,1963,1988
9.250000,2047,1962,1967
9.270834,2047,1954,1955
9.291667,2047,1955,1925
9.312500,2047,1932,1896
9.333334,2047,1927,1861
9.354167,2047,1923,1834
9.375000,2047,1932,1794
9.395834,2047,1934,1801
9.416667,2047,1933,1795
9.437500,2047,1921,1799
9.458334,2047,1925,1794
9.479167,2047,1930,1831
9.500000,2047,1931,1835
9.520834,2047,1931,1868
9.541667,2047,1929,1857
9.562500,2047,1924,1869
9.583334,2047,1934,1837
9.604167,2047,1932,1828
9.625000,2047,1926,1796
9.645834,2047,1924,1772
9.666667,2047,1925,1735
9.687500,2047,1903,1737
9.708334,2047,1900,1739
9.729167,2047,1898,1743
9.750000,2047,1898,1739
9.770834,2047,1902,1763
9.791667,2047,1928,1801
9.812500,2047,1922,1838
9.833334,2047,1934,1892
9.854167,2047,1957,1902
9.875000,2047,1962,1931
9.895834,2047,1953,1934
9.916667,2047,1929,1923
9.937500,2047,1920,1901
9.958334,2047,1931,1860
9.979167,2047,1931,1861
10.000000,2047,1933,1831
10.020834,2047,1921,1826
10.041667,2047,1930,1831
10.062500,2047,1929,1794
10.083334,2047,1903,1770
10.104167,2047,1899,1739
10.125000,2047,1893,1711
10.145834,2047,1892,1696
10.166667,2047,1903,1700
10.187500,2047,1891,1701
10.208334,2047,1895,1702
10.229167,2047,1897,1699
10.250000,2047,1901,1679
10.270834,2047,1899,1676
10.291667,2047,1899,1679
10.312500,2047,1898,1701
10.333334,2047,1902,1699
10.354167,2047,1921,1711
10.375000,2047,1923,1733
10.395834,2047,1922,1741
10.416667,2047,1923,1762
10.437500,2047,1921,1743
10.458334,2047,1923,1764
10.479167,2047,1931,1770
10.500000,2047,1920,1803
10.520834,2047,1931,1863
10.541667,2047,1955,1897
10.562500,2047,1961,1959
10.583334,2047,1965,1989
10.604167,2047,1966,1990
10.625000,2047,1964,1988
10.645834,2047,1963,1997
10.666667,2047,1964,1991
10.687500,2047,1953,1985
10.708334,2047,1959,2022
10.729167,2047,1967,2050
10.750000,2047,1989,2062
10.770834,2047,1998,2086
10.791667,2047,1986,2123
10.812500,2047,1992,2127
10.833334,2047,1995,2158
10.854167,2047,1997,2153
10.875000,2047,1996,2158
10.895834,2047,1992,2154
10.916667,2047,1992,2150
10.937500,2047,1987,2147
10.958334,2047,1996,2123
10.979167,2047,1992,2084
11.000000,2047,1989,2091
11.020834,2047,1987,2095
11.041667,2047,1987,2092
11.062500,2047,1988,2112
11.083334,2047,1991,2148
11.104167,2047,1995,2150
11.125000,2047,1995,2155
11.145834,2047,1995,2144
11.166667,2047,1991,2116
11.187500,2047,1965,2089
11.208334,2047,1952,2027
11.229167,2047,1956,1999
11.250000,2047,1930,1959
11.270834,2047,1925,1935
11.291667,2047,1923,1927
11.312500,2047,1925,1931
11.333334,2047,1931,1927
11.354167,2047,1954,1953
11.375000,2047,1957,1953
11.395834,2047,1955,1932
11.416667,2047,1958,1920
11.437500,2047,1957,1931
11.458334,2047,1958,1933
11.479167,2047,1965,1953
11.500000,2047,1957,1986
11.520834,2767,1966,2029
11.541667,3385,1994,2059
11.562500,3813,1987,2116
11.583334,3988,1992,2155
11.604167,3888,1994,2159
11.625000,3525,1993,2182
11.645834,2952,2026,2212
11.666667,2250,2112,2368
11.687500,1519,2279,2883
11.708334,863,2531,2991
11.729167,375,2753,2990
11.750000,126,2733,2990
11.770834,150,2380,2990
11.791667,444,1678,1862
11.812500,966,943,960
11.833334,2047,943,960
11.854167,2047,943,961
11.875000,2047,943,960
11.895834,2047,943,961
11.916667,2047,1287,961
11.937500,2047,2410,2184
11.958334,2047,2980,2991
11.979167,2047,2980,2991
12.000000,2047,2980,2991
12.020834,2047,2980,2991
12.041667,2047,2980,2991
12.062500,2047,2981,2991
12.083334,2047,1922,2626
12.104167,2047,943,961
12.125000,2047,943,961
12.145834,2047,943,960
12.166667,2047,943,960
12.187500,2047,943,960
12.208334,2047,1387,961
12.229167,2047,2401,2095
12.250000,2047,2980,2991
12.270834,2047,2981,2991
12.291667,2047,2980,2991
12.312500,2047,2980,2991
12.333334,2047,2980,2991
12.354167,2047,2980,2991
12.375000,2047,2980,2991
12.395834,2047,2980,2991
12.416667,2047,2891,2991
12.437500,2047,1703,1967
12.458334,2047,943,961
12.479167,2047,943,960
12.500000,2047,943,961
12.520834,2047,943,961
12.541667,2047,998,961
12.562500,2047,1665,961
12.583334,2047,2149,1319
12.604167,2047,2336,2472
12.625000,2047,2342,2991
12.645834,2047,2508,2991
12.666667,2047,2894,2990
12.687500,2047,2980,2990
12.708334,2047,2979,2991
12.729167,2047,2980,2991
12.750000,2047,2980,2991
12.770834,2047,2279,2944
12.791667,2047,1165,960
12.812500,2047,943,960
12.833334,2047,943,960
12.854167,2047,943,960
12.875000,2047,943,960
12.895834,2047,1421,960
12.916667,2047,1871,960
12.937500,2047,2158,1867
12.958334,2047,2211,2720
12.979167,2047,2281,2991
13.000000,2047,2479,2991
13.020834,2047,2799,2991
13.041667,2047,2980,2991
13.062500,2047,2980,2991
13.083334,2047,2979,2991
13.104167,2047,2543,2990
13.125000,2047,1865,2344
13.145834,2047,1226,960
13.166667,2047,943,960
13.187500,2047,943,960
13.208334,2047,943,961
13.229167,2047,1223,960
13.250000,2047,1540,960
13.270834,2047,1805,961
13.291667,2047,1967,1539
13.312500,2047,2145,2277
13.333334,2047,2317,2991
13.354167,2047,2507,2990
13.375000,2047,2664,2991
13.395834,2047,2725,2991
13.416667,2047,2638,2991
13.437500,2047,2406,2991
13.458334,2047,2095,2987
13.479167,2047,1729,2080
13.500000,2047,1451,960
13.520834,2047,1262,960
13.541667,2047,1231,961
13.562500,2047,1289,960
13.583334,2047,1410,960
13.604167,2047,1602,960
13.625000,2047,1839,1061
13.645834,2047,2124,1896
13.666667,2047,2338,2947
13.687500,2047,2510,2991
13.708334,2047,2603,2991
13.729167,2047,2561,2991
13.750000,2047,2433,2991
13.770834,2047,2249,2991
13.791667,2047,2049,2920
13.812500,2047,1867,2281
13.833334,2047,1709,1548
13.854167,2047,1611,960
13.875000,2047,1507,960
13.895834,2047,1479,960
13.916667,2047,1476,961
13.937500,2047,1577,961
13.958334,2047,1773,1062
13.979167,2047,1999,1893
14.000000,2047,2277,2763
14.020834,2047,2439,2991
14.041667,2047,2530,2991
14.062500,2047,2473,2990
14.083334,2047,2349,2990
14.104167,2047,2190,2924
14.125000,2047,1988,2573
14.145834,2047,1870,2190
14.166667,2047,1771,1826
14.187500,2047,1704,1441
14.208334,2047,1637,1005
14.229167,2047,1607,961
14.250000,2047,1606,960
14.270834,2047,1667,961
14.291667,2047,1798,993
14.312500,2047,1964,1568
14.333334,2047,2144,2245
14.354167,2047,2285,2853
14.375000,2047,2350,2991
14.395834,2047,2339,2991
14.416667,2047,2245,2991
14.437500,2047,2115,2702
14.458334,2047,1957,2337
14.479167,2047,1862,2017
14.500000,2047,1799,1735
14.520834,2047,1761,1485
14.541667,2047,1733,1191
14.562500,2047,1711,961
14.583334,2047,1699,960
14.604167,2047,1710,960
14.625000,2047,1762,995
14.645834,2047,1857,1452
14.666667,2047,1987,2030
14.687500,2047,2159,2636
14.708334,2047,2252,2991
14.729167,2047,2308,2991
14.750000,2047,2309,2991
14.770834,2047,2215,2796
14.791667,2047,2113,2440
14.812500,2047,1961,2052
14.833334,2047,1828,1711
14.854167,2047,1740,1449
14.875000,2047,1709,1260
14.895834,2047,1704,1134
14.916667,2047,1736,1089
14.937500,2047,1795,1158
14.958334,2047,1866,1351
14.979167,2047,1925,1670
15.000000,2047,1993,1997
15.020834,2047,2088,2351
15.041667,2047,2119,2562
15.062500,2047,2158,2700
15.083334,2047,2183,2731
15.104167,2047,2184,2668
15.125000,2047,2177,2573
15.145834,2047,2122,2440
15.166667,2047,2026,2254
15.187500,2047,1934,2024
15.208334,2047,1829,1799
15.229167,2047,1775,1604
15.250000,2047,1775,1451
15.270834,2047,1805,1423
15.291667,2047,1870,1518
15.312500,2047,1953,1700
15.333334,2047,2016,1957
15.354167,2767,2112,2217
15.375000,3385,2148,2410
15.395834,3813,2157,2511
15.416667,3988,2149,2569
15.437500,3888,2114,2542
15.458334,3525,2087,2443
15.479167,2952,2087,2368
15.500000,2250,2112,2377
15.520834,1519,2214,2700
15.541667,863,2436,2991
15.562500,375,2601,2991
15.583334,126,2594,2990
15.604167,150,2211,2990
15.625000,444,1540,1345
15.645834,966,943,961
15.666667,2047,943,961
15.687500,2047,943,961
15.708334,2047,943,960
15.729167,2047,943,960
15.750000,2047,1284,961
15.770834,2047,2413,2048
15.791667,2047,2980,2991
15.812500,2047,2981,2991
15.833334,2047,2980,2991
15.854167,2047,2980,2991
15.875000,2047,2981,2991
15.895834,2047,2981,2991
15.916667,2047,1763,2476
15.937500,2047,943,960
15.958334,2047,943,961
15.979167,2047,943,960
16.000000,2047,943,960
16.020834,2047,943,960
16.041668,2047,1315,961
16.062500,2047,2348,1890
16.083334,2047,2990,2991
16.104168,2047,2981,2991
16.125000,2047,2980,2990
16.145834,2047,2981,2991
16.166668,2047,2981,2991
16.187500,2047,2981,2991
16.208334,2047,2981,2990
16.229168,2047,2980,2991
16.250000,2047,2855,2991
16.270834,2047,1644,1935
16.291668,2047,943,960
16.312500,2047,943,960
16.333334,2047,943,960
16.354168,2047,943,960
16.375000,2047,1003,961
16.395834,2047,1633,960
16.416668,2047,2154,1255
16.437500,2047,2343,2504
16.458334,2047,2371,2991
16.479168,2047,2533,2991
16.500000,2047,2944,2991
16.520834,2047,2979,2991
16.541668,2047,2980,2991
16.562500,2047,2980,2991
16.583334,2047,2980,2991
16.604168,2047,2306,2915
16.625000,2047,1164,960
16.645834,2047,943,960
16.666668,2047,943,960
16.687500,2047,943,960
16.708334,2047,943,960
16.729168,2047,1452,960
16.750000,2047,1935,1066
16.770834,2047,2241,2145
16.791668,2047,2307,2987
16.812500,2047,2368,2991
16.833334,2047,2534,2991
16.854168,2047,2819,2991
16.875000,2047,2980,2991
16.895834,2047,2981,2991
16.916668,2047,2980,2991
16.937500,2047,2570,2991
16.958334,2047,1929,2595
16.979168,2047,1321,961
17.000000,2047,943,961
17.020834,2047,943,960
17.041668,2047,967,960
17.062500,2047,1251,960
17.083334,2047,1542,960
17.104168,2047,1806,960
17.125000,2047,2026,1609
17.145834,2047,2210,2411
17.166668,2047,2405,2991
17.187500,2047,2567,2991
17.208334,2047,2698,2991
17.229168,2047,2728,2991
17.250000,2047,2625,2991
17.270834,2047,2405,2991
17.291668,2047,2090,2991
17.312500,2047,1731,2287
17.333334,2047,1482,1152
17.354168,2047,1293,960
17.375000,2047,1226,961
17.395834,2047,1261,961
17.416668,2047,1382,943
17.437500,2047,1575,960
17.458334,2047,1830,960
17.479168,2047,2087,1772
17.500000,2047,2315,2669
17.520834,2047,2477,2990
17.541668,2047,2505,2990
17.562500,2047,2444,2991
17.583334,2047,2318,2991
17.604168,2047,2118,2991
17.625000,2047,1935,2662
17.645834,2047,1771,2092
17.666668,2047,1678,1472
17.687500,2047,1574,961
17.708334,2047,1515,960
17.729168,2047,1444,943
17.750000,2047,1452,961
17.770834,2047,1544,960
17.791668,2047,1728,960
17.812500,2047,1988,1679
17.833334,2047,2247,2509
17.854168,2047,2403,2991
17.875000,2047,2469,2991
17.895834,2047,2407,2991
17.916668,2047,2254,2889
17.937500,2047,2053,2498
17.958334,2047,1889,2123
17.979168,2047,1762,1798
18.000000,2047,1699,1551
18.020834,2047,1676,1284
18.041668,2047,1646,960
18.062500,2047,1601,960
18.083334,2047,1613,960
18.104168,2047,1641,960
18.125000,2047,1766,960
18.145834,2047,1930,1445
18.166668,2047,2114,2083
18.187500,2047,2283,2731
18.208334,2047,2343,2991
18.229168,2047,2346,2990
18.250000,2047,2242,2958
18.270834,2047,2115,2693
18.291668,2047,1987,2376
18.312500,2047,1892,2088
18.333334,2047,1827,1863
18.354168,2047,1765,1575
18.375000,2047,1743,1295
18.395834,2047,1709,967
18.416668,2047,1672,961
18.437500,2047,1675,960
18.458334,2047,1739,961
18.479168,2047,1835,1292
18.500000,2047,1965,1826
18.520834,2047,2118,2410
18.541668,2047,2223,2763
18.562500,2047,2275,2920
18.583334,2047,2253,2797
18.604168,2047,2152,2504
18.625000,2047,2026,2121
18.645834,2047,1903,1771
18.666668,2047,1775,1487
18.687500,2047,1696,1285
18.708334,2047,1673,1157
18.729168,2047,1673,1066
18.750000,2047,1702,1026
18.770834,2047,1739,1063
18.791668,2047,1803,1218
18.812500,2047,1891,1455
18.833334,2047,1955,1710
18.854168,2047,1998,1964
18.875000,2047,2083,2145
18.895834,2047,2122,2253
18.916668,2047,2153,2347
18.937500,2047,2147,2378
18.958334,2047,2148,2350
18.979168,2047,2086,2306
19.000000,2047,1994,2180
19.020834,2047,1903,2030
19.041668,2047,1835,1856
19.062500,2047,1775,1671
19.083334,2047,1740,1579
19.104168,2047,1767,1547
19.125000,2047,1826,1603
19.145834,2047,1920,1730
19.166668,2047,1996,1897
19.187500,2047,2056,2059
19.208334,2047,2086,2208
19.229168,2047,2116,2312
19.250000,2047,2115,2376
19.270834,2047,2094,2413
19.291668,2047,2086,2405
19.312500,2047,2086,2371
19.333334,2047,2059,2307
19.354168,2047,1997,2181
19.375000,2047,1925,2031
19.395834,2047,1898,1930
19.416668,2047,1869,1862
19.437500,2047,1869,1829
19.458334,2047,1893,1869
19.479168,2047,1935,1895
19.500000,2047,1962,1933
19.520834,2047,1993,1961
19.541668,2047,2031,1991
19.562500,2047,2029,2053
19.583334,2047,2057,2145
19.604168,2047,2092,2282
19.625000,2047,2093,2415
19.645834,2047,2123,2507
19.666668,2047,2125,2529
19.687500,2047,2089,2511
19.708334,2047,2056,2413
19.729168,2047,1994,2306
19.750000,2047,1959,2220
19.770834,2047,1959,2180
19.791668,2047,1961,2184
19.812500,2047,1965,2212
19.833334,2047,1992,2240
19.854168,2047,2029,2248
19.875000,2047,2020,2214
19.895834,2047,2023,2151
19.916668,2047,2025,2155
19.937500,2047,2024,2156
19.958334,2047,2031,2222
19.979168,2047,2050,2277
20.000000,2047,2063,2313
20.020834,2047,2052,2306
20.041668,2047,1999,2286
20.062500,2047,1988,2243
20.083334,2047,1955,2219
20.104168,2047,1958,2154
20.125000,2047,1954,2124
20.145834,2047,1959,2081
20.166668,2047,1963,2019
20.187500,2047,1963,1986
20.208334,2047,1992,1963
20.229168,2047,1991,1958
20.250000,2047,2018,1994
20.270834,2047,2027,2026
20.291668,2047,2025,2083
20.312500,2047,2023,2152
20.333334,2047,2016,2180
20.354168,2047,1988,2215
20.375000,2047,1994,2219
20.395834,2047,1988,2215
20.416668,2047,1966,2187
20.437500,2047,1954,2155
20.458334,2047,1962,2125
20.479168,2047,1931,2053
20.500000,2047,1930,1935
20.520834,2047,1903,1838
20.541668,2047,1901,1772
20.562500,2047,1924,1707
20.583334,2047,1927,1711
20.604168,2047,1963,1765
20.625000,2047,1956,1807
20.645834,2047,1956,1837
20.666668,2047,1954,1829
20.687500,2047,1929,1827
20.708334,2047,1892,1807
20.729168,2047,1899,1806
20.750000,2047,1899,1831
20.770834,2047,1893,1863
20.791668,2047,1924,1922
20.812500,2047,1930,1935
20.833334,2047,1924,1897
20.854168,2047,1900,1826
20.875000,2047,1898,1739
20.895834,2047,1899,1669
20.916668,2047,1923,1639
20.937500,2047,1924,1635
20.958334,2047,1956,1675
20.979168,2047,1961,1739
21.000000,2047,1954,1775
21.020834,2047,1923,1799
21.041668,2047,1921,1799
21.062500,2047,1889,1837
21.083334,2047,1889,1856
21.104168,2047,1895,1893
21.125000,2047,1920,1920
21.145834,2047,1923,1934
21.166668,2047,1925,1891
21.187500,2047,1922,1861
21.208334,2047,1921,1798
21.229168,2047,1922,1738
21.250000,2047,1930,1728
21.270834,2047,1929,1729
21.291668,2047,1956,1730
21.312500,2047,1959,1740
21.333334,2047,1954,1739
21.354168,2047,1934,1730
21.375000,2047,1892,1677
21.395834,2047,1888,1676
21.416668,2047,1864,1673
21.437500,2047,1868,1736
21.458334,2047,1899,1792
21.479168,2047,1899,1860
21.500000,2047,1924,1903
21.520834,2047,1927,1867
21.541668,2047,1925,1797
21.562500,2047,1902,1710
21.583334,2047,1896,1643
21.604168,2047,1895,1577
21.625000,2047,1896,1571
21.645834,2047,1899,1569
21.666668,2047,1892,1570
21.687500,2047,1895,1547
21.708334,2047,1860,1543
21.729168,2047,1839,1517
21.750000,2047,1826,1510
21.770834,2047,1839,1515
21.791668,2047,1830,1575
21.812500,2047,1863,1671
21.833334,2047,1866,1743
21.854168,2047,1903,1793
21.875000,2047,1901,1801
21.895834,2047,1927,1770
21.916668,2047,1920,1763
21.937500,2047,1924,1731
21.958334,2047,1930,1732
21.979168,2047,1952,1767
22.000000,2047,1957,1798
22.020834,2047,1957,1833
22.041668,2047,1956,1868
22.062500,2047,1954,1903
22.083334,2047,1953,1930
22.104168,2047,1962,1998
22.125000,2047,1955,2050
22.145834,2047,1963,2084
22.166668,2047,1985,2116
22.187500,2047,1986,2146
22.208334,2047,1966,2124
22.229168,2047,1965,2120
22.250000,2047,1966,2080
22.270834,2047,1989,2085
22.291668,2047,1985,2080
22.312500,2047,2018,2127
22.333334,2047,2029,2158
22.354168,2047,2020,2177
22.375000,2047,2018,2183
22.395834,2047,2021,2178
22.416668,2047,1994,2156
22.437500,2047,1999,2176
22.458334,2047,1995,2178
22.479168,2047,1997,2216
22.500000,2047,1985,2213
22.520834,2047,1990,2214
22.541668,2047,1986,2212
22.562500,2047,1999,2185
22.583334,2047,1994,2156
22.604168,2047,1989,2124
22.625000,2047,1996,2119
22.645834,2047,1984,2118
22.666668,2047,1992,2127
22.687500,2047,1999,2125
22.708334,2047,2017,2146
22.729168,2047,1991,2125
22.750000,2047,1997,2118
22.770834,2047,1988,2125
22.791668,2047,1965,2116
22.812500,2047,1984,2116
22.833334,2047,1986,2119
22.854168,2047,1993,2119
22.875000,2047,1998,2121
22.895834,2047,1999,2122
22.916668,2047,1995,2122
22.937500,2047,1993,2123
22.958334,2047,1994,2124
22.979168,2047,1995,2119
23.000000,2047,1995,2087
23.020834,2047,1992,2059
23.041668,2047,1988,2051
23.062500,2047,1966,2018
23.083334,2047,1957,2027
23.104168,2047,1967,2019
23.125000,2047,1954,2063
23.145834,2047,1966,2090
23.166668,2047,1993,2151
23.187500,2047,1994,2186
23.208334,2047,2019,2189
23.229168,2047,2020,2186
23.250000,2047,1994,2182
23.270834,2047,1985,2150
23.291668,2047,1991,2112
23.312500,2047,1967,2061
23.333334,2047,1966,2051
23.354168,2047,1984,2022
23.375000,2047,1989,2026
23.395834,2047,1991,2062
23.416668,2047,1995,2094
23.437500,2047,1996,2127
23.458334,2047,1994,2147
23.479168,2047,1992,2154
23.500000,2047,1991,2126
23.520834,2047,1985,2113
23.541668,2047,1959,2055
23.562500,2047,1952,2023
23.583334,2047,1959,1961
23.604168,2047,1931,1924
23.625000,2047,1935,1857
23.645834,2047,1927,1803
23.666668,2047,1903,1764
23.687500,2047,1897,1703
23.708334,2047,1899,1679
23.729168,2047,1921,1699
23.750000,2047,1932,1731
23.770834,2047,1926,1773
23.791668,2047,1953,1837
23.812500,2047,1962,1902
23.833334,2047,1966,1952
23.854168,2047,1964,1992
23.875000,2047,1959,1994
23.895834,2047,1955,1985
23.916668,2047,1935,1952
23.937500,2047,1932,1931
23.958334,2047,1931,1928
23.979168,2047,1932,1893
24.000000,2047,1930,1892
24.020834,2047,1929,1863
24.041668,2047,1928,1867
24.062500,2047,1929,1863
24.083334,2047,1930,1866
24.104168,2047,1933,1890
24.125000,2047,1952,1921
24.145834,2047,1957,1960
24.166668,2047,1963,1995
24.187500,2047,1963,1991
24.208334,2047,1964,1994
24.229168,2047,1963,1964
24.250000,2047,1956,1921
24.270834,2047,1933,1868
24.291668,2047,1925,1804
24.312500,2047,1935,1775
24.333334,2047,1926,1743
24.354168,2047,1922,1708
24.375000,2047,1896,1711
24.395834,2047,1888,1701
24.416668,2047,1901,1678
24.437500,2047,1898,1676
24.458334,2047,1899,1696
24.479168,2047,1889,1697
24.500000,2047,1896,1735
24.520834,2047,1902,1763
24.541668,2047,1926,1771
24.562500,2047,1933,1802
24.583334,2047,1923,1792
24.604168,2047,1923,1804
24.625000,2047,1923,1798
24.645834,2047,1922,1794
24.666668,2047,1934,1773
24.687500,2047,1930,1767
24.708334,2047,1927,1763
24.729168,2047,1922,1770
24.750000,2047,1902,1739
24.770834,2047,1899,1734
24.791668,2047,1898,1705
24.812500,2047,1899,1705
24.833334,2047,1920,1743
24.854168,2047,1928,1767
24.875000,2047,1920,1834
24.895834,2047,1928,1860
24.916668,2047,1932,1891
24.937500,2047,1931,1895
24.958334,2047,1931,1871
24.979168,2047,1927,1835
25.000000,2047,1921,1799
25.020834,2047,1935,1795
25.041668,2047,1921,1803
25.062500,2047,1926,1838
25.083334,2047,1933,1892
25.104168,2047,1962,1953
25.125000,2047,1954,1990
25.145834,2047,1959,2029
25.166668,2047,1963,2053
25.187500,2047,1961,2059
25.208334,2047,1956,2051
25.229168,2047,1956,2059
25.250000,2047,1956,2049
25.270834,2047,1957,2028
25.291668,2047,1962,2030
25.312500,2047,1984,2058
25.333334,2047,1987,2057
25.354168,2047,1994,2081
25.375000,2047,1999,2122
25.395834,2047,1985,2125
25.416668,2047,1989,2145
25.437500,2047,1990,2158
25.458334,2047,1989,2179
25.479168,2047,1991,2178
25.500000,2047,1990,2157
25.520834,2047,1985,2156
25.541668,2047,1993,2121
25.562500,2047,1987,2115
25.583334,2047,1965,2092
25.604168,2047,1961,2060
25.625000,2047,1963,2057
25.645834,2047,1966,2080
25.666668,2047,1986,2093
25.687500,2047,1993,2093
25.708334,2047,1984,2118
25.729168,2047,1988,2126
25.750000,2047,1991,2114
25.770834,2047,1994,2121
25.791668,2047,1997,2126
25.812500,2047,1997,2149
25.833334,2047,2017,2158
25.854168,2047,2018,2156
25.875000,2047,2020,2185
25.895834,2047,2017,2191
25.916668,2047,1999,2182
25.937500,2047,1993,2181
25.958334,2047,1985,2188
25.979168,2047,1987,2184
26.000000,2047,1999,2154
26.020834,2047,1989,2145
26.041668,2047,1987,2147
26.062500,2047,1986,2119
26.083334,2047,1988,2117
26.104168,2047,1987,2114
26.125000,2047,1987,2124
26.145834,2047,1990,2159
26.166668,2047,1992,2187
26.187500,2047,1996,2212
26.208334,2047,2017,2216
26.229168,2047,2021,2221
26.250000,2047,2020,2211
26.270834,2047,1999,2189
26.291668,2047,1993,2158
26.312500,2047,1984,2125
26.333334,2047,1997,2120
26.354168,2047,1991,2088
26.375000,2047,1987,2095
26.395834,2047,1988,2084
26.416668,2047,1988,2088
26.437500,2047,1991,2094
26.458334,2047,1992,2092
26.479168,2047,1991,2081
26.500000,2047,1988,2062
26.520834,2047,1985,2058
26.541668,2047,1985,2031
26.562500,2047,1986,2027
26.583334,2047,1966,2023
26.604168,2047,1963,2017
26.625000,2047,1960,2027
26.645834,2047,1954,1994
26.666668,2047,1966,1986
26.687500,2047,1960,1959
26.708334,2047,1952,1925
26.729168,2047,1932,1894
26.750000,2047,1923,1867
26.770834,2047,1934,1825
26.791668,2047,1930,1804
26.812500,2047,1924,1804
26.833334,2047,1921,1773
26.854168,2767,1925,1769
26.875000,3385,1925,1768
26.895834,3813,1928,1794
26.916668,3988,1935,1799
26.937500,3888,1923,1838
26.958334,3525,1929,1863
26.979168,2952,1966,1895
27.000000,2250,2024,2087
27.020834,1519,2220,2594
27.041668,863,2475,2990
27.062500,375,2702,2991
27.083334,126,2699,2991
27.104168,150,2347,2991
27.125000,444,1638,1646
27.145834,966,943,961
27.166668,2047,943,960
27.187500,2047,943,960
27.208334,2047,943,960
27.229168,2047,943,960
27.250000,2047,1260,961
27.270834,2047,2347,2083
27.291668,2047,2981,2991
27.312500,2047,2981,2991
27.333334,2047,2981,2991
27.354168,2047,2980,2991
27.375000,2047,2980,2991
27.395834,2047,2980,2991
27.416668,2047,1834,2600
27.437500,2047,943,960
27.458334,2047,943,961
27.479168,2047,943,961
27.500000,2047,943,961
27.520834,2047,943,960
27.541668,2047,1326,960
27.562500,2047,2316,1797
27.583334,2047,2979,2991
27.604168,2047,2981,2991
27.625000,2047,2980,2991
27.645834,2047,2980,2991
27.666668,2047,2979,2991
27.687500,2047,2981,2991
27.708334,2047,2980,2991
27.729168,2047,2980,2990
27.750000,2047,2881,2991
27.770834,2047,1699,1773
27.791668,2047,943,961
27.812500,2047,943,960
27.833334,2047,943,943
27.854168,2047,943,960
27.875000,2047,998,961
27.895834,2047,1647,961
27.916668,2047,2148,1223
27.937500,2047,2338,2479
27.958334,2047,2351,2991
27.979168,2047,2506,2991
28.000000,2047,2916,2991
28.020834,2047,2980,2990
28.041668,2047,2981,2991
28.062500,2047,2980,2991
28.083334,2047,2979,2991
28.104168,2047,2306,2893
28.125000,2047,1192,960
28.145834,2047,943,960
28.166668,2047,943,960
28.187500,2047,943,960
28.208334,2047,943,960
28.229168,2047,1485,960
28.250000,2047,1956,1063
28.270834,2047,2242,2150
28.291668,2047,2310,2989
28.312500,2047,2349,2991
28.333334,2047,2529,2990
28.354168,2047,2850,2991
28.375000,2047,2980,2991
28.395834,2047,2980,2991
28.416668,2047,2980,2991
28.437500,2047,2600,2991
28.458334,2047,1931,2542
28.479168,2047,1293,960
28.500000,2047,943,960
28.520834,2047,943,960
28.541668,2047,964,960
28.562500,2047,1249,961
28.583334,2047,1538,960
28.604168,2047,1807,961
28.625000,2047,1995,1550
28.645834,2047,2180,2402
28.666668,2047,2346,2991
28.687500,2047,2540,2991
28.708334,2047,2699,2991
28.729168,2047,2759,2990
28.750000,2047,2689,2991
28.770834,2047,2442,2991
28.791668,2047,2116,2991
28.812500,2047,1775,2250
28.833334,2047,1485,1099
28.854168,2047,1312,960
28.875000,2047,1258,960
28.895834,2047,1325,960
28.916668,2047,1449,961
28.937500,2047,1638,960
28.958334,2047,1862,1063
28.979168,2047,2112,1995
29.000000,2047,2351,2984
29.020834,2047,2510,2991
29.041668,2047,2603,2991
29.062500,2047,2561,2991
29.083334,2047,2436,2991
29.104168,2047,2252,2991
29.125000,2047,2048,2920
29.145834,2047,1863,2307
29.166668,2047,1700,1580
29.187500,2047,1580,960
29.208334,2047,1510,961
29.229168,2047,1445,943
29.250000,2047,1480,960
29.270834,2047,1569,961
29.291668,2047,1773,1039
29.312500,2047,1997,1860
29.333334,2047,2255,2732
29.354168,2047,2446,2991
29.375000,2047,2499,2991
29.395834,2047,2468,2991
29.416668,2047,2343,2991
29.437500,2047,2176,2915
29.458334,2047,1999,2565
29.479168,2047,1866,2208
29.500000,2047,1806,1894
29.520834,2047,1735,1543
29.541668,2047,1709,1185
29.562500,2047,1679,960
29.583334,2047,1673,960
29.604168,2047,1708,961
29.625000,2047,1834,1124
29.645834,2047,1997,1676
29.666668,2047,2177,2345
29.687500,2047,2336,2984
29.708334,2047,2410,2991
29.729168,2047,2378,2991
29.750000,2047,2305,2991
29.770834,2047,2159,2920
29.791668,2047,2021,2575
29.812500,2047,1897,2252
29.833334,2047,1832,1927
29.854168,2047,1760,1577
29.875000,2047,1736,1223
29.895834,2047,1703,961
29.916668,2047,1677,961
29.937500,2047,1705,960
29.958334,2047,1743,960
29.979168,2047,1858,1346
30.000000,2047,1986,1966
30.020834,2047,2150,2573
30.041668,2047,2245,2986
30.062500,2047,2304,2991
30.083334,2047,2309,2991
30.104168,2047,2214,2826
30.125000,2047,2094,2446
30.145834,2047,1953,2080
30.166668,2047,1832,1739
30.187500,2047,1739,1447
30.208334,2047,1672,1219
30.229168,2047,1666,1062
30.250000,2047,1708,1005
30.270834,2047,1761,1039
30.291668,2047,1824,1188
30.312500,2047,1893,1450
30.333334,2047,1954,1800
30.354168,2047,1995,2091
30.375000,2047,2063,2314
30.395834,2047,2120,2443
30.416668,2047,2151,2475
30.437500,2047,2155,2408
30.458334,2047,2114,2317
30.479168,2047,2056,2149
30.500000,2047,1962,1935
30.520834,2047,1861,1704
30.541668,2047,1765,1483
30.562500,2047,1697,1255
30.583334,2047,1679,1100
30.604168,2047,1703,1058
30.625000,2047,1768,1154
30.645834,2047,1837,1318
30.666668,2047,1930,1569
30.687500,2767,1997,1807
30.708334,3385,2021,2017
30.729168,3813,2057,2149
30.750000,3988,2058,2242
30.770834,3888,2053,2248
30.791668,3525,2058,2247
30.812500,2952,2055,2216
30.833334,2250,2080,2272
30.854168,1519,2211,2636
30.875000,863,2443,2991
30.895834,375,2632,2991
30.916668,126,2593,2990
30.937500,150,2219,2991
30.958334,444,1551,1409
30.979168,966,943,961
31.000000,2047,943,960
31.020834,2047,943,960
31.041668,2047,943,960
31.062500,2047,943,960
31.083334,2047,1287,961
31.104168,2047,2413,2183
31.125000,2047,2980,2991
31.145834,2047,2981,2991
31.166668,2047,2981,2991
31.187500,2047,2980,2991
31.208334,2047,2980,2991
31.229168,2047,2981,2991
31.250000,2047,1769,2597
31.270834,2047,943,960
31.291668,2047,943,961
31.312500,2047,943,960
31.333334,2047,943,960
31.354168,2047,943,960
31.375000,2047,1327,960
31.395834,2047,2340,1825
31.416668,2047,2990,2991
31.437500,2047,2980,2991
31.458334,2047,2981,2991
31.479168,2047,2981,2991
31.500000,2047,2980,2991
31.520834,2047,2980,2991
31.541668,2047,2980,2991
31.562500,2047,2980,2991
31.583334,2047,2863,2990
31.604168,2047,1647,1773
31.625000,2047,943,960
31.645834,2047,943,960
31.666668,2047,943,960
31.687500,2047,943,961
31.708334,2047,943,960
31.729168,2047,1602,961
31.750000,2047,2092,1130
31.770834,2047,2282,2345
31.791668,2047,2345,2991
31.812500,2047,2509,2991
31.833334,2047,2924,2991
31.854168,2047,2981,2991
31.875000,2047,2980,2990
31.895834,2047,2981,2991
31.916668,2047,2980,2991
31.937500,2047,2243,2858
31.958334,2047,1097,960
31.979168,2047,943,960
32.000000,2047,943,960
32.020836,2047,943,961
32.041668,2047,943,960
32.062500,2047,1389,960
32.083336,2047,1863,960
32.104168,2047,2180,1865
32.125000,2047,2281,2754
32.145836,2047,2340,2991
32.166668,2047,2533,2990
32.187500,2047,2827,2991
32.208336,2047,2980,2991
32.229168,2047,2981,2991
32.250000,2047,2987,2991
32.270836,2047,2541,2990
32.291668,2047,1893,2595
32.312500,2047,1282,961
32.333336,2047,943,960
32.354168,2047,943,961
32.375000,2047,960,943
32.395836,2047,1221,961
32.416668,2047,1537,961
32.437500,2047,1836,960
32.458336,2047,2056,1637
32.479168,2047,2247,2563
32.500000,2047,2433,2991
32.520836,2047,2624,2991
32.541668,2047,2733,2991
32.562500,2047,2755,2991
32.583336,2047,2663,2990
32.604168,2047,2407,2991
32.625000,2047,2114,2991
32.645836,2047,1774,2344
32.666668,2047,1509,1223
32.687500,2047,1320,960
32.708336,2047,1257,961
32.729168,2047,1294,960
32.750000,2047,1419,961
32.770836,2047,1634,943
32.791668,2047,1867,1093
32.812500,2047,2157,2031
32.833336,2047,2411,2952
32.854168,2047,2563,2991
32.875000,2047,2592,2991
32.895836,2047,2540,2991
32.916668,2047,2369,2991
32.937500,2047,2176,2990
32.958336,2047,1967,2787
32.979168,2047,1828,2241
33.000000,2047,1710,1633
33.020836,2047,1614,960
33.041668,2047,1517,960
33.062500,2047,1480,960
33.083336,2047,1482,960
33.104168,2047,1578,960
33.125000,2047,1763,994
33.145836,2047,1998,1763
33.166668,2047,2282,2592
33.187500,2047,2442,2991
33.208336,2047,2503,2991
33.229168,2047,2440,2991
33.250000,2047,2285,2990
33.270836,2047,2118,2670
33.291668,2047,1921,2308
33.312500,2047,1825,2060
33.333336,2047,1743,1835
33.354168,2047,1705,1547
33.375000,2047,1674,1250
33.395836,2047,1669,960
33.416668,2047,1666,961
33.437500,2047,1701,961
33.458336,2047,1807,1098
33.479168,2047,1985,1611
33.500000,2047,2181,2251
33.520836,2047,2305,2828
33.541668,2047,2383,2991
33.562500,2047,2342,2991
33.583336,2047,2242,2926
33.604168,2047,2122,2624
33.625000,2047,1967,2246
33.645836,2047,1867,1952
33.666668,2047,1799,1699
33.687500,2047,1736,1443
33.708336,2047,1703,1163
33.729168,2047,1679,960
33.750000,2047,1666,960
33.770836,2047,1704,960
33.791668,2047,1765,995
33.812500,2047,1863,1451
33.833336,2047,2021,2085
33.854168,2047,2186,2635
33.875000,2047,2280,2990
33.895836,2047,2338,2990
33.916668,2047,2311,2986
33.937500,2047,2209,2671
33.958336,2047,2088,2317
33.979168,2047,1957,1953
34.000000,2047,1834,1667
34.020836,2047,1763,1504
34.041668,2047,1729,1382
34.062500,2047,1730,1319
34.083336,2047,1763,1325
34.104168,2047,1827,1419
34.125000,2047,1889,1572
34.145836,2047,1933,1762
34.166668,2047,1986,1999
34.187500,2047,2048,2188
34.208336,2047,2087,2336
34.229168,2047,2119,2412
34.250000,2047,2152,2412
34.270836,2047,2152,2381
34.291668,2047,2112,2310
34.312500,2047,2057,2209
34.333336,2047,1957,2016
34.354168,2047,1861,1835
34.375000,2047,1771,1611
34.395836,2047,1729,1445
34.416668,2047,1699,1348
34.437500,2047,1737,1359
34.458336,2047,1806,1452
34.479168,2047,1899,1634
34.500000,2047,1997,1860
34.520836,2047,2059,2052
34.541668,2047,2089,2220
34.562500,2047,2092,2304
34.583336,2047,2086,2337
34.604168,2047,2094,2377
34.625000,2047,2085,2372
34.645836,2047,2056,2314
34.666668,2047,2049,2243
34.687500,2047,1991,2127
34.708336,2047,1926,1987
34.729168,2047,1892,1901
34.750000,2047,1856,1828
34.770836,2047,1834,1773
34.791668,2047,1860,1761
34.812500,2047,1892,1763
34.833336,2047,1924,1773
34.854168,2047,1952,1775
34.875000,2047,1955,1799
34.895836,2047,1965,1829
34.916668,2047,1991,1890
34.937500,2047,1987,1996
34.958336,2047,2018,2091
34.979168,2047,2017,2190
35.000000,2047,2016,2240
35.020836,2047,1997,2216
35.041668,2047,1962,2113
35.062500,2047,1935,2018
35.083336,2047,1900,1896
35.104168,2047,1859,1830
35.125000,2047,1858,1795
35.145836,2047,1888,1767
35.166668,2047,1897,1765
35.187500,2047,1922,1771
35.208336,2047,1958,1739
35.229168,2047,1958,1738
35.250000,2047,1984,1767
35.270836,2047,1996,1839
35.291668,2047,1993,1955
35.312500,2047,2017,2057
35.333336,2047,2021,2155
35.354168,2047,1996,2214
35.375000,2047,1998,2250
35.395836,2047,1965,2243
35.416668,2047,1965,2212
35.437500,2047,1957,2212
35.458336,2047,1959,2184
35.479168,2047,1959,2155
35.500000,2047,1952,2115
35.520836,2047,1962,2054
35.541668,2047,1985,1995
35.562500,2047,1999,1958
35.583336,2047,1993,1953
35.604168,2047,2022,1991
35.625000,2047,2016,2062
35.645836,2047,2020,2151
35.666668,2047,2021,2246
35.687500,2047,2031,2280
35.708336,2047,2020,2306
35.729168,2047,1988,2282
35.750000,2047,1988,2209
35.770836,2047,1956,2156
35.791668,2047,1957,2083
35.812500,2047,1925,1985
35.833336,2047,1930,1933
35.854168,2047,1926,1858
35.875000,2047,1935,1829
35.895836,2047,1935,1839
35.916668,2047,1955,1856
35.937500,2047,1986,1862
35.958336,2047,1987,1870
35.979168,2047,1962,1862
36.000000,2047,1955,1831
36.020836,2047,1930,1794
36.041668,2047,1890,1768
36.062500,2047,1898,1775
36.083336,2047,1901,1833
36.104168,2047,1895,1892
36.125000,2047,1925,1931
36.145836,2047,1927,1962
36.166668,2047,1922,1922
36.187500,2047,1891,1827
36.208336,2047,1897,1706
36.229168,2047,1893,1611
36.250000,2047,1888,1551
36.270836,2047,1920,1539
36.291668,2047,1921,1568
36.312500,2047,1931,1647
36.333336,2047,1930,1699
36.354168,2047,1923,1767
36.375000,2047,1924,1835
36.395836,2047,1903,1893
36.416668,2047,1921,1958
36.437500,2047,1927,1999
36.458336,2047,1921,2061
36.479168,2047,1926,2048
36.500000,2047,1927,2025
36.520836,2047,1928,1956
36.541668,2047,1931,1893
36.562500,2047,1957,1858
36.583336,2047,1957,1865
36.604168,2047,1995,1903
36.625000,2047,1993,1933
36.645836,2047,1994,1959
36.666668,2047,1984,1957
36.687500,2047,1962,1921
36.708336,2047,1953,1888
36.729168,2047,1935,1860
36.750000,2047,1928,1870
36.770836,2047,1935,1921
36.791668,2047,1933,1989
36.812500,2047,1963,2057
36.833336,2047,1955,2094
36.854168,2047,1952,2085
36.875000,2047,1956,1995
36.895836,2047,1929,1898
36.916668,2047,1924,1837
36.937500,2047,1928,1797
36.958336,2047,1959,1796
36.979168,2047,1967,1796
37.000000,2047,1955,1827
37.020836,2047,1961,1827
37.041668,2047,1923,1803
37.062500,2047,1899,1772
37.083336,2047,1897,1739
37.104168,2047,1892,1762
37.125000,2047,1897,1803
37.145836,2047,1896,1860
37.166668,2047,1931,1900
37.187500,2047,1927,1929
37.208336,2047,1933,1935
37.229168,2047,1934,1893
37.250000,2047,1929,1837
37.270836,2047,1924,1768
37.291668,2047,1935,1741
37.312500,2047,1932,1703
37.333336,2047,1929,1707
37.354168,2047,1923,1702
37.375000,2047,1903,1711
37.395836,2047,1897,1731
37.416668,2047,1898,1771
37.437500,2047,1899,1805
37.458336,2047,1921,1864
37.479168,2047,1930,1928
37.500000,2047,1933,1953
37.520836,2047,1921,1954
37.541668,2047,1922,1921
37.562500,2047,1924,1895
37.583336,2047,1928,1897
37.604168,2047,1952,1901
37.625000,2047,1967,1923
37.645836,2047,1962,1935
37.666668,2047,1984,1959
37.687500,2047,1985,1967
37.708336,2047,1958,1954
37.729168,2047,1957,1923
37.750000,2047,1925,1890
37.770836,2047,1931,1861
37.791668,2047,1926,1860
37.812500,2047,1926,1857
37.833336,2047,1930,1863
37.854168,2047,1935,1857
37.875000,2047,1924,1867
37.895836,2047,1927,1903
37.916668,2047,1931,1925
37.937500,2047,1955,1955
37.958336,2047,1965,1967
37.979168,2047,1963,1999
38.000000,2047,1997,2028
38.020836,2047,1989,2049
38.041668,2047,1992,2084
38.062500,2047,1984,2085
38.083336,2047,1991,2090
38.104168,2047,1963,2090
38.125000,2047,1957,2087
38.145836,2047,1959,2089
38.166668,2047,1962,2093
38.187500,2047,1985,2112
38.208336,2047,1991,2117
38.229168,2047,1996,2122
38.250000,2047,1984,2115
38.270836,2047,1999,2118
38.291668,2047,1986,2114
38.312500,2047,1985,2091
38.333336,2047,1998,2060
38.354168,2767,1998,2030
38.375000,3385,1990,2016
38.395836,3813,1967,1988
38.416668,3988,1963,1994
38.437500,3888,1959,2029
38.458336,3525,1961,2060
38.479168,2952,1995,2122
38.500000,2250,2090,2312
38.520836,1519,2249,2789
38.541668,863,2505,2991
38.562500,375,2730,2991
38.583336,126,2725,2991
38.604168,150,2376,2991
38.625000,444,1644,1775
38.645836,966,943,960
38.666668,2047,943,961
38.687500,2047,943,961
38.708336,2047,943,960
38.729168,2047,943,960
38.750000,2047,1260,961
38.770836,2047,2377,2114
38.791668,2047,2981,2991
38.812500,2047,2980,2991
38.833336,2047,2981,2991
38.854168,2047,2981,2991
38.875000,2047,2979,2991
38.895836,2047,2981,2990
38.916668,2047,1862,2722
38.937500,2047,943,960
38.958336,2047,943,961
38.979168,2047,943,961
39.000000,2047,943,960
39.020836,2047,943,960
39.041668,2047,1325,960
39.062500,2047,2317,1742
39.083336,2047,2982,2991
39.104168,2047,2981,2991
39.125000,2047,2981,2991
39.145836,2047,2981,2990
39.166668,2047,2981,2991
39.187500,2047,2981,2991
39.208336,2047,2980,2991
39.229168,2047,2980,2991
39.250000,2047,2887,2990
39.270836,2047,1664,1792
39.291668,2047,943,960
39.312500,2047,943,960
39.333336,2047,943,960
39.354168,2047,943,960
39.375000,2047,960,961
39.395836,2047,1606,961
39.416668,2047,2089,1164
39.437500,2047,2285,2249
39.458336,2047,2308,2991
39.479168,2047,2464,2991
39.500000,2047,2895,2991
39.520836,2047,2980,2991
39.541668,2047,2981,2991
39.562500,2047,2980,2991
39.583336,2047,2981,2991
39.604168,2047,2287,2862
39.625000,2047,1135,960
39.645836,2047,943,960
39.666668,2047,943,960
39.687500,2047,943,961
39.708336,2047,943,961
39.729168,2047,1408,960
39.750000,2047,1894,960
39.770836,2047,2181,1830
39.791668,2047,2250,2656
39.812500,2047,2310,2991
39.833336,2047,2479,2990
39.854168,2047,2817,2991
39.875000,2047,2981,2991
39.895836,2047,2981,2991
39.916668,2047,2981,2991
39.937500,2047,2602,2991
39.958336,2047,1932,2404
39.979168,2047,1288,961
40.000000,2047,943,960
40.020836,2047,943,961
40.041668,2047,943,960
40.062500,2047,1219,960
40.083336,2047,1543,961
40.104168,2047,1803,961
40.125000,2047,1994,1543
40.145836,2047,2178,2316
40.166668,2047,2342,2991
40.187500,2047,2533,2991
40.208336,2047,2699,2991
40.229168,2047,2753,2991
40.250000,2047,2659,2991
40.270836,2047,2404,2991
40.291668,2047,2092,2986
40.312500,2047,1729,2054
40.333336,2047,1454,960
40.354168,2047,1280,960
40.375000,2047,1226,960
40.395836,2047,1260,961
40.416668,2047,1387,961
40.437500,2047,1579,960
40.458336,2047,1827,996
40.479168,2047,2087,1831
40.500000,2047,2342,2824
40.520836,2047,2504,2991
40.541668,2047,2600,2991
40.562500,2047,2560,2991
40.583336,2047,2439,2991
40.604168,2047,2275,2991
40.625000,2047,2080,2959
40.645836,2047,1870,2403
40.666668,2047,1735,1711
40.687500,2047,1647,963
40.708336,2047,1568,960
40.729168,2047,1511,960
40.750000,2047,1542,960
40.770836,2047,1636,961
40.791668,2047,1793,1185
40.812500,2047,2025,1967
40.833336,2047,2272,2883
40.854168,2047,2465,2991
40.875000,2047,2536,2991
40.895836,2047,2498,2991
40.916668,2047,2373,2991
40.937500,2047,2187,2948
40.958336,2047,2023,2603
40.979168,2047,1891,2251
41.000000,2047,1800,1900
41.020836,2047,1736,1543
41.041668,2047,1679,1153
41.062500,2047,1666,943
41.083336,2047,1676,960
41.104168,2047,1732,961
41.125000,2047,1836,1190
41.145836,2047,2021,1765
41.166668,2047,2221,2531
41.187500,2047,2368,2991
41.208336,2047,2442,2991
41.229168,2047,2412,2991
41.250000,2047,2346,2991
41.270836,2047,2223,2990
41.291668,2047,2081,2761
41.312500,2047,1960,2445
41.333336,2047,1903,2152
41.354168,2047,1837,1863
41.375000,2047,1798,1541
41.395836,2047,1766,1231
41.416668,2047,1766,995
41.437500,2047,1762,971
41.458336,2047,1833,1189
41.479168,2047,1935,1645
41.500000,2047,2089,2273
41.520836,2047,2213,2881
41.541668,2047,2337,2991
41.562500,2047,2376,2990
41.583336,2047,2374,2991
41.604168,2047,2275,2991
41.625000,2047,2150,2700
41.645836,2047,1995,2317
41.666668,2047,1891,1933
41.687500,2047,1806,1672
41.708336,2047,1741,1477
41.729168,2047,1734,1347
41.750000,2047,1762,1283
41.770836,2047,1829,1312
41.791668,2047,1869,1477
41.812500,2047,1928,1729
41.833336,2047,1997,1984
41.854168,2047,2025,2241
41.875000,2047,2083,2405
41.895836,2047,2122,2510
41.916668,2047,2148,2507
41.937500,2047,2150,2473
41.958336,2047,2146,2371
41.979168,2047,2092,2246
42.000000,2047,1995,2083
42.020836,2047,1894,1867
42.041668,2047,1800,1637
42.062500,2047,1737,1454
42.083336,2047,1699,1290
42.104168,2047,1738,1230
42.125000,2047,1798,1286
42.145836,2047,1862,1455
42.166668,2047,1958,1675
42.187500,2047,2018,1902
42.208336,2047,2056,2115
42.229168,2047,2081,2211
42.250000,2047,2061,2250
42.270836,2047,2049,2244
42.291668,2047,2021,2151
42.312500,2047,1989,2021
42.333336,2047,1934,1871
42.354168,2047,1902,1703
42.375000,2047,1829,1551
42.395836,2047,1799,1422
42.416668,2047,1772,1325
42.437500,2047,1774,1319
42.458336,2047,1799,1344
42.479168,2047,1824,1414
42.500000,2047,1867,1479
42.520836,2047,1921,1568
42.541668,2047,1931,1677
42.562500,2047,1967,1764
42.583336,2047,1965,1862
42.604168,2047,1988,1931
42.625000,2047,1998,2017
42.645836,2047,1993,2031
42.666668,2047,1959,2023
42.687500,2047,1926,1924
42.708336,2047,1898,1807
42.729168,2047,1839,1676
42.750000,2047,1801,1543
42.770836,2047,1803,1477
42.791668,2047,1793,1450
42.812500,2047,1835,1478
42.833336,2047,1871,1538
42.854168,2047,1890,1607
42.875000,2047,1935,1664
42.895836,2047,1935,1710
42.916668,2047,1962,1734
42.937500,2047,1965,1770
42.958336,2047,1961,1807
42.979168,2047,1935,1795
43.000000,2047,1920,1792
43.020836,2047,1899,1731
43.041668,2047,1895,1701
43.062500,2047,1860,1639
43.083336,2047,1863,1601
43.104168,2047,1857,1583
43.125000,2047,1839,1581
43.145836,2047,1859,1568
43.166668,2047,1867,1547
43.187500,2047,1860,1515
43.208336,2047,1870,1486
43.229168,2047,1893,1445
43.250000,2047,1899,1440
43.270836,2047,1897,1473
43.291668,2047,1894,1513
43.312500,2047,1864,1541
43.333336,2047,1866,1572
43.354168,2047,1834,1604
43.375000,2047,1838,1607
43.395836,2047,1838,1604
43.416668,2047,1830,1635
43.437500,2047,1864,1675
43.458336,2047,1867,1731
43.479168,2047,1901,1740
43.500000,2047,1893,1739
43.520836,2047,1898,1728
43.541668,2047,1902,1677
43.562500,2047,1924,1667
43.583336,2047,1935,1647
43.604168,2047,1927,1677
43.625000,2047,1933,1701
43.645836,2047,1929,1707
43.666668,2047,1922,1731
43.687500,2047,1925,1772
43.708336,2047,1921,1799
43.729168,2047,1925,1890
43.750000,2047,1925,1991
43.770836,2047,1967,2112
43.791668,2047,1994,2222
43.812500,2047,1993,2319
43.833336,2047,2019,2339
43.854168,2047,2017,2279
43.875000,2047,1995,2208
43.895836,2047,1989,2083
43.916668,2047,1984,1990
43.937500,2047,1998,1923
43.958336,2047,1994,1899
43.979168,2047,1987,1869
44.000000,2047,1957,1871
44.020836,2047,1958,1898
44.041668,2047,1928,1903
44.062500,2047,1923,1957
44.083336,2047,1926,1999
44.104168,2047,1931,2089
44.125000,2047,1964,2150
44.145836,2047,1959,2213
44.166668,2047,1985,2212
44.187500,2047,1993,2209
44.208336,2047,1986,2157
44.229168,2047,1998,2114
44.250000,2047,2024,2085
44.270836,2047,2018,2091
44.291668,2047,2020,2093
44.312500,2047,2017,2082
44.333336,2047,2019,2092
44.354168,2047,1999,2060
44.375000,2047,1965,2048
44.395836,2047,1956,2058
44.416668,2047,1960,2116
44.437500,2047,1986,2188
44.458336,2047,1988,2253
44.479168,2047,2016,2317
44.500000,2047,2023,2345
44.520836,2047,2022,2339
44.541668,2047,2019,2277
44.562500,2047,2016,2184
44.583336,2047,2016,2121
44.604168,2047,2020,2087
44.625000,2047,2023,2095
44.645836,2047,2027,2089
44.666668,2047,2021,2120
44.687500,2047,1993,2114
44.708336,2047,1993,2120
44.729168,2047,1966,2118
44.750000,2047,1962,2127
44.770836,2047,1964,2156
44.791668,2047,1991,2220
44.812500,2047,1987,2255
44.833336,2047,1999,2286
44.854168,2047,2020,2282
44.875000,2047,2019,2246
44.895836,2047,2018,2188
44.916668,2047,1997,2127
44.937500,2047,1993,2084
44.958336,2047,1987,2020
44.979168,2047,1996,1997
45.000000,2047,1966,1956
45.020836,2047,1966,1924
45.041668,2047,1935,1895
45.062500,2047,1924,1862
45.083336,2047,1933,1862
45.104168,2047,1935,1899
45.125000,2047,1925,1921
45.145836,2047,1930,1958
45.166668,2047,1952,1985
45.187500,2047,1931,1995
45.208336,2047,1926,1964
45.229168,2047,1929,1897
45.250000,2047,1923,1860
45.270836,2047,1902,1796
45.291668,2047,1903,1766
45.312500,2047,1922,1760
45.333336,2047,1922,1742
45.354168,2047,1901,1703
45.375000,2047,1889,1671
45.395836,2047,1892,1647
45.416668,2047,1869,1633
45.437500,2047,1869,1642
45.458336,2047,1891,1671
45.479168,2047,1891,1743
45.500000,2047,1923,1797
45.520836,2047,1922,1831
45.541668,2047,1930,1860
45.562500,2047,1930,1860
45.583336,2047,1925,1837
45.604168,2047,1920,1795
45.625000,2047,1920,1775
45.645836,2047,1924,1732
45.666668,2047,1932,1743
45.687500,2047,1954,1734
45.708336,2047,1958,1775
45.729168,2047,1953,1801
45.750000,2047,1935,1834
45.770836,2047,1930,1866
45.791668,2047,1931,1897
45.812500,2047,1931,1902
45.833336,2047,1954,1935
45.854168,2047,1957,1926
45.875000,2047,1961,1931
45.895836,2047,1963,1957
45.916668,2047,1962,1960
45.937500,2047,1961,1952
45.958336,2047,1961,1966
45.979168,2047,1965,1959
46.000000,2047,1962,1931
46.020836,2047,1964,1888
46.041668,2047,1964,1857
46.062500,2047,1958,1837
46.083336,2047,1954,1830
46.104168,2047,1932,1835
46.125000,2047,1925,1865
46.145836,2047,1924,1862
46.166668,2047,1930,1871
46.187500,2047,1953,1890
46.208336,2047,1935,1865
46.229168,2047,1954,1859
46.250000,2047,1931,1864
46.270836,2047,1923,1856
46.291668,2047,1920,1833
46.312500,2047,1931,1839
46.333336,2047,1933,1832
46.354168,2047,1930,1799
46.375000,2047,1922,1797
46.395836,2047,1924,1825
46.416668,2047,1929,1856
46.437500,2047,1934,1902
46.458336,2047,1955,1956
46.479168,2047,1963,1991
46.500000,2047,1954,2021
46.520836,2047,1961,2056
46.541668,2047,1967,2049
46.562500,2047,1967,2054
46.583336,2047,1986,2061
46.604168,2047,1987,2087
46.625000,2047,1965,2094
46.645836,2047,1958,2088
46.666668,2047,1954,2057
46.687500,2047,1965,2030
46.708336,2047,1966,2022
46.729168,2047,1966,1997
46.750000,2047,1957,2017
46.770836,2047,1988,2091
46.791668,2047,1991,2157
46.812500,2047,2026,2251
46.833336,2047,2026,2346
46.854168,2047,2054,2403
46.875000,2047,2061,2412
46.895836,2047,2059,2408
46.916668,2047,2056,2405
46.937500,2047,2056,2369
46.958336,2047,2053,2344
46.979168,2047,2052,2344
47.000000,2047,2052,2307
47.020836,2047,2052,2287
47.041668,2047,2050,2287
47.062500,2047,2049,2278
47.083336,2047,2052,2287
47.104168,2047,2053,2309
47.125000,2047,2062,2340
47.145836,2047,2084,2400
47.166668,2047,2090,2415
47.187500,2047,2093,2443
47.208336,2047,2085,2400
47.229168,2047,2053,2345
47.250000,2047,2058,2276
47.270836,2047,2024,2219
47.291668,2047,1993,2145
47.312500,2047,1998,2093
47.333336,2047,1990,2051
47.354168,2047,1993,2053
47.375000,2047,1993,2080
47.395836,2047,1987,2144
47.416668,2047,1999,2179
47.437500,2047,2021,2223
47.458336,2047,2029,2272
47.479168,2047,2027,2272
47.500000,2047,2026,2272
47.520836,2047,2020,2273
47.541668,2047,1996,2244
47.562500,2047,1992,2208
47.583336,2047,1987,2158
47.604168,2047,1995,2119
47.625000,2047,1991,2081
47.645836,2047,1967,2062
47.666668,2047,1958,2021
47.687500,2047,1963,1986
47.708336,2047,1957,1964
47.729168,2047,1935,1960
47.750000,2047,1959,1956
47.770836,2047,1956,1985
47.791668,2047,1967,2025
47.812500,2047,1995,2081
47.833336,2047,1991,2122
47.854168,2047,1993,2148
47.875000,2047,1995,2144
47.895836,2047,1990,2154
47.916668,2047,1999,2123
47.937500,2047,1993,2115
47.958336,2047,1991,2095
47.979168,2047,1988,2050
48.000000,2047,1965,2029
48.020836,2047,1959,1991
48.041668,2047,1956,1953
48.062500,2047,1954,1967
48.083336,2047,1960,1988
48.104168,2047,1989,2027
48.125000,2047,1990,2095
48.145836,2047,2023,2179
48.166668,2047,2031,2216
48.187500,2047,2016,2251
48.208336,2047,2023,2223
48.229168,2047,1994,2181
48.250000,2047,1991,2117
48.270836,2047,1960,2056
48.291668,2047,1959,1965
48.312500,2047,1935,1903
48.333336,2047,1925,1867
48.354168,2047,1921,1827
48.375000,2047,1935,1839
48.395836,2047,1921,1857
48.416668,2047,1927,1869
48.437500,2047,1935,1902
48.458336,2047,1957,1927
48.479168,2047,1964,1955
48.500000,2047,1964,1930
48.520836,2047,1960,1924
48.541668,2047,1935,1895
48.562500,2047,1925,1860
48.583336,2047,1932,1835
48.604168,2047,1923,1797
48.625000,2047,1921,1804
48.645836,2047,1921,1799
48.666668,2047,1926,1803
48.687500,2047,1928,1804
48.708336,2047,1930,1796
48.729168,2047,1931,1826
48.750000,2047,1921,1834
48.770836,2047,1925,1871
48.791668,2047,1934,1932
