TimeMS,Input,Output_1,Output_2
0.000000,4095,1952,1923
0.020833,4095,1928,1933
0.041667,4095,1923,1928
0.062500,4095,1924,1927
0.083333,4095,1925,1927
0.104167,4095,1927,1930
0.125000,4095,1930,1935
0.145833,4095,1928,1924
0.166667,4095,1926,1933
0.187500,4095,1924,1959
0.208333,4095,1925,1955
0.229167,4095,1931,1965
0.250000,4095,1952,1967
0.270833,4095,1960,1987
0.291667,4095,1953,1994
0.312500,4095,1965,1987
0.333333,4095,1988,1998
0.354167,4095,1993,2023
0.375000,4095,1999,2030
0.395833,4095,1999,2019
0.416667,0,1998,2026
0.437500,0,1985,2056
0.458333,0,1999,2053
0.479167,0,1997,2084
0.500000,0,1984,2082
0.520833,0,1987,2092
0.541667,0,1995,2113
0.562500,0,2018,2117
0.583333,0,2024,2116
0.604167,0,2016,2115
0.625000,0,2016,2092
0.645833,0,2031,2085
0.666667,0,2031,2081
0.687500,0,2030,2093
0.708333,0,2017,2086
0.729167,0,2021,2082
0.750000,0,2023,2062
0.770833,0,2023,2080
0.791667,0,2026,2084
0.812500,0,2029,2088
0.833333,4095,2050,2088
0.854167,4095,2048,2083
0.875000,4095,2062,2062
0.895833,4095,2060,2054
0.916667,4095,2057,2059
0.937500,4095,2058,2053
0.958333,4095,2059,2053
0.979167,4095,2048,2063
1.000000,4095,2056,2080
1.020833,4095,2083,2095
1.041667,4095,2093,2090
1.062500,4095,2091,2091
1.083333,4095,2087,2094
1.104167,4095,2061,2094
1.125000,4095,2049,2085
1.145833,4095,2060,2092
1.166667,4095,2056,2082
1.187500,4095,2059,2062
1.208333,4095,2052,2061
1.229167,4095,2061,2062
1.250000,0,2091,2063
1.270833,0,2082,2084
1.291667,0,2081,2087
1.312500,0,2090,2084
1.333333,0,2087,2086
1.354167,0,2089,2086
1.375000,0,2093,2093
1.395833,0,2083,2083
1.416667,0,2087,2090
1.437500,0,2087,2114
1.458333,0,2085,2118
1.479167,0,2082,2114
1.500000,0,2091,2084
1.520833,0,2086,2088
1.541667,0,2062,2059
1.562500,0,2053,2052
1.583333,0,2059,2049
1.604167,0,2049,2048
1.625000,0,2025,2061
1.645833,0,2019,2059
1.666667,4095,1999,2061
1.687500,4095,1995,2063
1.708333,4095,1990,2061
1.729167,4095,1988,2054
1.750000,4095,1988,2021
1.770833,4095,1987,2022
1.791667,4095,1984,1995
1.812500,4095,1999,1988
1.833333,4095,1997,1987
1.854167,4095,1993,1991
1.875000,4095,1994,1993
1.895833,4095,1986,1997
1.916667,4095,1999,1991
1.937500,4095,2022,1990
1.958333,4095,2063,1998
1.979167,4095,2020,2030
2.000000,4095,1965,2022
2.020833,4095,1896,2018
2.041667,4095,1833,1955
2.062500,4095,1831,1891
2.083333,0,1892,1838
2.104167,0,1961,1824
2.125000,0,2020,1863
2.145833,0,2053,1923
2.166667,0,2049,1966
2.187500,0,2026,2023
2.208333,0,1990,2029
2.229167,0,1988,1993
2.250000,0,2018,1984
2.270833,0,2025,1963
2.291667,0,2059,1997
2.312500,0,2049,2029
2.333333,0,1956,2057
2.354167,0,1831,2031
2.375000,0,1739,1966
2.395833,0,1735,1858
2.416667,0,1833,1762
2.437500,0,2018,1735
2.458333,0,2180,1830
2.479167,0,2272,1994
2.500000,4095,2244,2212
2.520833,4095,2147,2341
2.541667,4095,2025,2372
2.562500,4095,1955,2253
2.583333,4095,1934,2112
2.604167,4095,1935,1964
2.625000,4095,1935,1862
2.645833,4095,1895,1862
2.666667,4095,1865,1927
2.687500,4095,1803,1967
2.708333,4095,1805,1984
2.729167,4095,1864,1962
2.750000,4095,1998,1929
2.770833,4095,2218,1952
2.791667,4095,2375,2059
2.812500,4095,2415,2219
2.833333,4095,2283,2404
2.854167,4095,2060,2467
2.875000,4095,1830,2340
2.895833,4095,1766,2090
2.916667,0,1805,1801
2.937500,0,1896,1635
2.958333,0,1966,1605
2.979167,0,1962,1764
3.000000,0,1926,1989
3.020833,0,1894,2184
3.041667,0,1934,2287
3.062500,0,2021,2254
3.083333,0,2189,2156
3.104167,0,2339,2084
3.125000,0,2410,2089
3.145833,0,2343,2148
3.166667,0,2149,2251
3.187500,0,1824,2246
3.208333,0,1579,2123
3.229167,0,1515,1830
3.250000,0,1610,1581
3.270833,0,1862,1452
3.291667,0,2093,1568
3.312500,0,2215,1861
3.333333,4095,2219,2274
3.354167,4095,2157,2510
3.375000,4095,2112,2542
3.395833,4095,2089,2336
3.416667,4095,2083,2024
3.437500,4095,2081,1728
3.458333,4095,2019,1601
3.479167,4095,1901,1639
3.500000,4095,1736,1798
3.520833,4095,1614,1897
3.541667,4095,1600,1922
3.562500,4095,1698,1837
3.583333,4095,1893,1737
3.604167,4095,2180,1700
3.625000,4095,2349,1825
3.645833,4095,2319,2056
3.666667,4095,2153,2340
3.687500,4095,1865,2440
3.708333,4095,1675,2314
3.729167,4095,1644,1956
3.750000,0,1707,1610
3.770833,0,1826,1351
3.791667,0,1893,1354
3.812500,0,1870,1550
3.833333,0,1804,1863
3.854167,0,1734,2080
3.875000,0,1733,2125
3.895833,0,1864,2029
3.916667,0,2026,1891
3.937500,0,2214,1834
3.958333,0,2273,1896
3.979167,0,2178,2062
4.000000,0,1935,2241
4.020833,0,1644,2275
4.041667,0,1443,2091
4.062500,0,1409,1741
4.083333,0,1601,1415
4.104167,0,1860,1259
4.125000,0,2125,1408
4.145833,0,2210,1766
4.166667,0,2176,2212
4.187500,0,2085,2477
4.208333,0,1991,2504
4.229167,0,1988,2316
4.250000,0,1995,1990
4.270833,0,2018,1711
4.291667,0,1960,1635
4.312500,0,1869,1711
4.333333,0,1734,1839
4.354167,0,1612,1953
4.375000,0,1615,1932
4.395833,0,1730,1794
4.416667,0,1935,1665
4.437500,0,2209,1645
4.458333,0,2381,1801
4.479167,0,2350,2126
4.500000,0,2184,2379
4.520833,0,1925,2499
4.541667,0,1761,2340
4.562500,0,1737,2020
4.583333,0,1824,1673
4.604167,0,1935,1455
4.625000,0,1988,1487
4.645833,0,1955,1733
4.666667,0,1871,2050
4.687500,0,1795,2251
4.708333,0,1824,2310
4.729167,0,1958,2179
4.750000,0,2184,2027
4.770833,0,2371,1953
4.791667,0,2447,2023
4.812500,0,2370,2222
4.833333,0,2114,2376
4.854167,0,1806,2434
4.875000,0,1580,2246
4.895833,0,1537,1929
4.916667,0,1673,1611
4.937500,0,1927,1449
4.958333,0,2183,1578
4.979167,0,2279,1922
5.000000,0,2248,2314
5.020833,0,2149,2575
5.041667,0,2082,2604
5.062500,0,2091,2376
5.083333,0,2119,2055
5.104167,0,2113,1804
5.125000,0,2055,1702
5.145833,0,1923,1807
5.166667,0,1742,1953
5.187500,0,1608,2087
5.208333,0,1583,2056
5.229167,0,1701,1928
5.250000,0,1966,1762
5.270833,0,2250,1702
5.291667,0,2432,1828
5.312500,0,2436,2083
5.333333,0,2243,2344
5.354167,0,1958,2472
5.375000,0,1767,2339
5.395833,0,1730,2021
5.416667,0,1797,1647
5.437500,0,1933,1422
5.458333,0,1994,1455
5.479167,0,1965,1670
5.500000,0,1860,1959
5.520833,0,1795,2182
5.541667,0,1826,2216
5.562500,0,1989,2094
5.583333,0,2214,1930
5.604167,0,2438,1829
5.625000,0,2506,1900
5.645833,0,2406,2091
5.666667,0,2154,2280
5.687500,0,1800,2350
5.708333,0,1546,2184
5.729167,0,1476,1892
5.750000,0,1636,1546
5.770833,0,1927,1383
5.791667,0,2183,1479
5.812500,0,2278,1831
5.833333,0,2218,2222
5.854167,0,2124,2536
5.875000,0,2025,2566
5.895833,0,2017,2346
5.916667,0,2061,1999
5.937500,0,2089,1729
5.958333,0,2057,1645
5.979167,0,1903,1735
6.000000,0,1696,1901
6.020833,0,1551,2029
6.041667,0,1483,2021
6.062500,0,1582,1888
6.083333,0,1796,1735
6.104167,0,2057,1641
6.125000,0,2247,1730
6.145833,0,2272,1922
6.166667,0,2215,2150
6.187500,0,2087,2318
6.208333,0,1953,2309
6.229167,0,1923,2155
6.250000,0,1888,1926
6.270833,0,1859,1728
6.291667,0,1805,1639
6.312500,0,1704,1703
6.333333,0,1601,1832
6.354167,0,1579,1959
6.375000,0,1671,1991
6.395833,0,1827,1922
6.416667,0,2023,1825
6.437500,0,2181,1769
6.458333,0,2252,1795
6.479167,0,2185,1931
6.500000,0,2030,2062
6.520833,0,1869,2176
6.541667,0,1800,2147
6.562500,0,1770,2052
6.583333,0,1798,1900
6.604167,0,1829,1798
6.625000,0,1834,1794
6.645833,0,1831,1839
6.666667,0,1802,1933
6.687500,0,1837,2025
6.708333,0,1903,2026
6.729167,0,1999,1997
6.750000,0,2091,1962
6.770833,0,2158,1962
6.791667,0,2154,2027
6.812500,0,2090,2088
6.833333,0,2018,2154
6.854167,0,1954,2178
6.875000,0,1925,2113
6.895833,0,1920,2018
6.916667,0,1952,1924
6.937500,0,1993,1861
6.958333,0,1991,1857
6.979167,0,1965,1895
7.000000,0,1922,1960
7.020833,0,1935,2023
7.041667,0,1954,2030
7.062500,0,2028,2023
7.083333,0,2084,2022
7.104167,0,2112,1996
7.125000,0,2113,1998
7.145833,0,2063,2017
7.166667,0,1967,1986
7.187500,0,1935,1961
7.208333,0,1900,1899
7.229167,0,1903,1831
7.250000,0,1924,1800
7.270833,0,1959,1799
7.291667,0,1961,1867
7.312500,0,1928,1920
7.333333,0,1901,1989
7.354167,0,1895,2031
7.375000,0,1890,2062
7.395833,0,1893,2048
7.416667,0,1928,2019
7.437500,0,1962,1962
7.458333,0,1996,1921
7.479167,0,1996,1899
7.500000,0,1989,1869
7.520833,0,1963,1833
7.541667,0,1960,1831
7.562500,0,1961,1856
7.583333,0,1965,1860
7.604167,0,1966,1892
7.625000,0,1961,1922
7.645833,0,1964,1957
7.666667,0,1930,1995
7.687500,0,1932,2031
7.708333,0,1927,2081
7.729167,0,1925,2092
7.750000,0,1959,2057
7.770833,0,2016,2025
7.791667,0,2057,1959
7.812500,0,2091,1924
7.833333,0,2088,1925
7.854167,0,2048,1958
7.875000,0,1994,2023
7.895833,0,1966,2052
7.916667,0,1965,2086
7.937500,0,1961,2087
7.958333,0,1962,2063
7.979167,0,1965,2080
8.000000,0,1964,2095
8.020834,0,1963,2114
8.041667,0,1954,2123
8.062500,0,1991,2091
8.083334,0,2021,2056
8.104167,0,2054,1987
8.125000,0,2087,1921
8.145834,0,2063,1922
8.166667,0,2027,1956
8.187500,0,1967,2021
8.208334,0,1921,2082
8.229167,0,1892,2087
8.250000,0,1901,2063
8.270834,0,1898,2017
8.291667,0,1930,1955
8.312500,0,1934,1895
8.333334,0,1934,1901
8.354167,0,1920,1900
8.375000,0,1932,1923
8.395834,0,1957,1932
8.416667,0,1995,1924
8.437500,0,1984,1895
8.458334,0,1963,1866
8.479167,0,1920,1869
8.500000,0,1867,1870
8.520834,0,1835,1899
8.541667,0,1798,1935
8.562500,0,1825,1923
8.583334,0,1859,1857
8.604167,0,1896,1803
8.625000,0,1921,1728
8.645834,0,1928,1702
8.666667,0,1903,1735
8.687500,0,1903,1763
8.708334,0,1891,1831
8.729167,0,1891,1856
8.750000,0,1896,1894
8.770834,0,1899,1897
8.791667,0,1894,1894
8.812500,0,1892,1898
8.833334,0,1894,1899
8.854167,0,1900,1931
8.875000,0,1903,1929
8.895834,0,1935,1927
8.916667,0,1967,1933
8.937500,0,1995,1924
8.958334,0,2028,1934
8.979167,0,2028,1956
9.000000,0,2017,2026
9.020834,0,1984,2089
9.041667,0,1966,2126
9.062500,0,1959,2121
9.083334,0,1958,2117
9.104167,0,1961,2084
9.125000,0,1985,2053
9.145834,0,1997,2023
9.166667,0,1991,2030
9.187500,0,2020,2051
9.208334,0,2020,2090
9.229167,0,2050,2083
9.250000,0,2055,2094
9.270834,0,2052,2063
9.291667,0,2050,2048
9.312500,0,1990,2059
9.333334,0,1967,2050
9.354167,0,1953,2084
9.375000,0,1967,2080
9.395834,0,1958,2094
9.416667,0,1984,2056
9.437500,0,1991,2023
9.458334,0,1995,1994
9.479167,0,1998,1985
9.500000,0,1986,1989
9.520834,0,1989,1998
9.541667,0,1989,2018
9.562500,0,1985,1996
9.583334,0,1993,1986
9.604167,0,1965,1991
9.625000,0,1952,1987
9.645834,0,1956,1988
9.666667,0,1935,1998
9.687500,0,1958,1987
9.708334,0,1953,1986
9.729167,0,1965,1991
9.750000,0,1987,1955
9.770834,0,1996,1953
9.791667,0,1989,1922
9.812500,0,2019,1924
9.833334,0,2019,1962
9.854167,0,2027,1984
9.875000,0,2023,2018
9.895834,0,2024,2054
9.916667,0,1986,2031
9.937500,0,1986,2028
9.958334,0,1963,1991
9.979167,0,1993,1987
10.000000,0,2024,1999
10.020834,0,2083,2028
10.041667,0,2092,2054
10.062500,0,2117,2091
10.083334,0,2094,2082
10.104167,0,2085,2093
10.125000,0,2094,2089
10.145834,0,2093,2095
10.166667,0,2084,2121
10.187500,0,2094,2159
10.208334,0,2119,2189
10.229167,0,2116,2187
10.250000,0,2085,2184
10.270834,0,2084,2185
10.291667,0,2059,2147
10.312500,0,2062,2144
10.333334,0,2095,2120
10.354167,0,2117,2118
10.375000,0,2116,2117
10.395834,0,2119,2124
10.416667,0,2121,2091
10.437500,0,2095,2087
10.458334,0,2051,2060
10.479167,0,2027,2062
10.500000,0,2019,2090
10.520834,0,2023,2090
10.541667,0,2030,2117
10.562500,0,2020,2115
10.583334,0,2022,2082
10.604167,0,2021,2051
10.625000,0,2020,2022
10.645834,0,2027,2016
10.666667,0,2052,1992
10.687500,0,2056,1989
10.708334,0,2054,1996
10.729167,0,2059,1963
10.750000,0,2023,1957
10.770834,0,1991,1925
10.791667,0,1995,1922
10.812500,0,1993,1933
10.833334,0,1994,1959
10.854167,0,1985,1984
10.875000,0,1992,2019
10.895834,0,1993,2022
10.916667,0,1991,1995
10.937500,0,1985,1995
10.958334,0,1994,1966
10.979167,0,1988,1967
11.000000,0,1992,1985
11.020834,0,1999,2025
11.041667,0,1994,2049
11.062500,0,2019,2062
11.083334,0,2021,2049
11.104167,0,2022,2060
11.125000,0,2024,2059
11.145834,0,2027,2049
11.166667,0,2031,2061
11.187500,0,2031,2086
11.208334,0,2030,2091
11.229167,0,2029,2089
11.250000,0,2027,2083
11.270834,0,2023,2062
11.291667,0,1999,2063
11.312500,0,1994,2090
11.333334,0,1987,2086
11.354167,0,1985,2091
11.375000,0,1987,2085
11.395834,0,1984,2082
11.416667,0,1993,2055
11.437500,0,1989,2029
11.458334,0,1967,1995
11.479167,0,1964,1990
11.500000,0,1962,1996
11.520834,0,1954,2018
11.541667,0,1963,2021
11.562500,0,1955,2018
11.583334,0,1931,1995
11.604167,0,1924,1999
11.625000,0,1935,1993
11.645834,0,1927,1990
11.666667,0,1925,1987
11.687500,0,1930,1967
11.708334,0,1928,1957
11.729167,0,1961,1956
11.750000,0,1962,1924
11.770834,0,1967,1928
11.791667,0,1959,1928
11.812500,0,1963,1920
11.833334,0,1931,1933
11.854167,0,1923,1962
11.875000,0,1925,1962
11.895834,0,1931,1967
11.916667,0,1953,1966
11.937500,0,1953,1959
11.958334,0,1932,1967
11.979167,0,1928,1965
12.000000,0,1930,1967
12.020834,0,1935,1963
12.041667,0,1963,1954
12.062500,0,1967,1927
12.083334,0,1997,1932
12.104167,0,1984,1925
12.125000,0,1993,1929
12.145834,0,1954,1925
12.166667,0,1930,1955
12.187500,0,1926,1953
12.208334,0,1900,1959
12.229167,0,1903,1962
12.250000,0,1930,1958
12.270834,0,1923,1963
12.291667,0,1933,1954
12.312500,0,1953,1930
12.333334,0,1953,1927
12.354167,0,1955,1934
12.375000,0,1962,1956
12.395834,0,1955,1963
12.416667,0,1964,1954
12.437500,0,1967,1959
12.458334,0,1965,1967
12.479167,0,1955,1994
12.500000,4095,1963,1990
12.520834,4095,1960,2017
12.541667,4095,1961,2017
12.562500,4095,1966,1994
12.583334,4095,1956,1995
12.604167,4095,1960,1963
12.625000,4095,1962,1964
12.645834,4095,1959,1962
12.666667,4095,1959,1953
12.687500,4095,1962,1985
12.708334,4095,1966,1984
12.729167,4095,1989,1994
12.750000,4095,1994,1999
12.770834,4095,1994,1999
12.791667,4095,1989,2018
12.812500,4095,1985,2020
12.833334,4095,1985,2020
12.854167,4095,1992,2018
12.875000,4095,1993,2017
12.895834,4095,2025,2018
12.916667,0,2023,2017
12.937500,0,2048,2020
12.958334,0,2060,2023
12.979167,0,2031,2030
13.000000,0,2019,2030
13.020834,0,1997,2054
13.041667,0,1999,2088
13.062500,0,2022,2082
13.083334,0,2025,2081
13.104167,0,2022,2090
13.125000,0,1995,2060
13.145834,0,1998,2048
13.166667,0,1991,2056
13.187500,0,1989,2058
13.208334,0,1994,2049
13.229167,0,1990,2061
13.250000,0,1999,2080
13.270834,0,2023,2063
13.291667,0,2026,2061
13.312500,0,2021,2063
13.333334,4095,1998,2084
13.354167,4095,1991,2090
13.375000,4095,1996,2084
13.395834,4095,1997,2061
13.416667,4095,1984,2052
13.437500,4095,1999,2059
13.458334,4095,1999,2057
13.479167,4095,1992,2057
13.500000,4095,1987,2061
13.520834,4095,1985,2048
13.541667,4095,1988,2053
13.562500,4095,1990,2049
13.583334,4095,1992,2058
13.604167,4095,1988,2028
13.625000,4095,1987,2016
13.645834,4095,1967,2025
13.666667,4095,1961,2022
13.687500,4095,1958,2021
13.708334,4095,1956,2018
13.729167,4095,1955,1994
13.750000,0,1954,1995
13.770834,0,1966,1962
13.791667,0,1962,1959
13.812500,0,1959,1935
13.833334,0,1959,1930
13.854167,0,1959,1929
13.875000,0,1958,1927
13.895834,0,1958,1922
13.916667,0,1960,1934
13.937500,0,1959,1925
13.958334,0,1962,1927
13.979167,0,1967,1931
14.000000,0,1956,1925
14.020834,0,1961,1952
14.041667,0,1963,1960
14.062500,0,1954,1960
14.083334,0,1967,1961
14.104167,0,1965,1957
14.125000,0,1967,1957
14.145834,0,1959,1962
14.166667,4095,1964,1956
14.187500,4095,1985,1984
14.208334,4095,1967,1998
14.229167,4095,1963,1992
14.250000,4095,1955,1989
14.270834,4095,1952,1999
14.291667,4095,1956,1993
14.312500,4095,1959,1989
14.333334,4095,1963,1995
14.354167,4095,1967,1991
14.375000,4095,1987,2020
14.395834,4095,1984,2020
14.416667,4095,2023,2026
14.437500,4095,2057,2031
14.458334,4095,2087,2059
14.479167,4095,2063,2058
14.500000,4095,1985,2085
14.520834,4095,1899,2057
14.541667,4095,1864,2029
14.562500,4095,1839,1959
14.583334,0,1890,1899
14.604167,0,1932,1869
14.625000,0,1998,1869
14.645834,0,2024,1930
14.666667,0,1999,1964
14.687500,0,1997,1999
14.708334,0,1965,2020
14.729167,0,1960,1985
14.750000,0,1986,1959
14.770834,0,1999,1962
14.791667,0,1995,1967
14.812500,0,1957,1987
14.833334,0,1858,1990
14.854167,0,1760,1992
14.875000,0,1674,1900
14.895834,0,1674,1794
14.916667,0,1767,1673
14.937500,0,1960,1609
14.958334,0,2126,1697
14.979167,0,2220,1862
15.000000,4095,2177,2055
15.020834,4095,2093,2184
15.041667,4095,1952,2191
15.062500,4095,1897,2087
15.083334,4095,1870,1921
15.104167,4095,1863,1775
15.125000,4095,1834,1677
15.145834,4095,1801,1673
15.166667,4095,1764,1738
15.187500,4095,1705,1773
15.208334,4095,1700,1803
15.229167,4095,1767,1794
15.250000,4095,1920,1792
15.270834,4095,2156,1805
15.291667,4095,2316,1920
15.312500,4095,2349,2127
15.333334,4095,2208,2313
15.354167,4095,1986,2402
15.375000,4095,1773,2280
15.395834,4095,1701,2052
15.416667,0,1731,1774
15.437500,0,1806,1577
15.458334,0,1898,1546
15.479167,0,1903,1711
15.500000,0,1892,1926
15.520834,0,1871,2119
15.541667,0,1903,2188
15.562500,0,1989,2148
15.583334,0,2155,2053
15.604167,0,2316,1958
15.625000,0,2376,1955
15.645834,0,2283,2031
15.666667,0,2080,2121
15.687500,0,1764,2148
15.708334,0,1505,1991
15.729167,0,1442,1731
15.750000,0,1547,1445
15.770834,0,1802,1318
15.791667,0,2027,1415
15.812500,0,2150,1743
15.833334,4095,2145,2119
15.854167,4095,2091,2408
15.875000,4095,1986,2472
15.895834,4095,1957,2307
15.916667,4095,1961,1995
15.937500,4095,1959,1711
15.958334,4095,1927,1578
15.979167,4095,1807,1614
16.000000,4095,1674,1762
16.020834,4095,1569,1871
16.041668,4095,1569,1895
16.062500,4095,1677,1839
16.083334,4095,1899,1728
16.104168,4095,2179,1703
16.125000,4095,2345,1833
16.145834,4095,2351,2094
16.166668,4095,2183,2350
16.187500,4095,1920,2464
16.208334,4095,1733,2346
16.229168,4095,1697,2025
16.250000,0,1765,1637
16.270834,0,1871,1391
16.291668,0,1931,1383
16.312500,0,1896,1603
16.333334,0,1829,1898
16.354168,0,1792,2159
16.375000,0,1806,2208
16.395834,0,1931,2119
16.416668,0,2148,1966
16.437500,0,2306,1891
16.458334,0,2342,1953
16.479168,0,2255,2114
16.500000,0,1991,2273
16.520834,0,1697,2304
16.541668,0,1486,2123
16.562500,0,1455,1763
16.583334,0,1603,1451
16.604168,0,1864,1295
16.625000,0,2126,1413
16.645834,0,2208,1771
16.666668,4095,2179,2190
16.687500,4095,2090,2508
16.708334,4095,1997,2533
16.729168,4095,1992,2310
16.750000,4095,1995,1994
16.770834,4095,2019,1734
16.791668,4095,1953,1638
16.812500,4095,1856,1697
16.833334,4095,1697,1857
16.854168,4095,1600,1955
16.875000,4095,1583,1929
16.895834,4095,1679,1797
16.916668,4095,1902,1670
16.937500,4095,2189,1635
16.958334,4095,2350,1802
16.979168,4095,2317,2081
17.000000,4095,2151,2344
17.020834,4095,1871,2447
17.041668,4095,1700,2314
17.062500,4095,1671,1935
17.083334,0,1769,1570
17.104168,0,1863,1349
17.125000,0,1930,1387
17.145834,0,1892,1603
17.166668,0,1804,1928
17.187500,0,1739,2176
17.208334,0,1763,2217
17.229168,0,1897,2125
17.250000,0,2118,1959
17.270834,0,2287,1895
17.291668,0,2381,1958
17.312500,0,2279,2126
17.333334,0,2057,2308
17.354168,0,1740,2350
17.375000,0,1507,2176
17.395834,0,1475,1859
17.416668,0,1639,1549
17.437500,0,1920,1387
17.458334,0,2151,1539
17.479168,0,2273,1889
17.500000,4095,2247,2309
17.520834,4095,2148,2593
17.541668,4095,2080,2600
17.562500,4095,2086,2372
17.583334,4095,2118,2054
17.604168,4095,2119,1795
17.625000,4095,2092,1701
17.645834,4095,1956,1793
17.666668,4095,1802,1991
17.687500,4095,1674,2116
17.708334,4095,1644,2118
17.729168,4095,1738,1994
17.750000,4095,1992,1839
17.770834,4095,2283,1803
17.791668,4095,2442,1926
17.812500,4095,2447,2178
17.833334,4095,2255,2433
17.854168,4095,1958,2537
17.875000,4095,1773,2435
17.895834,4095,1737,2085
17.916668,0,1839,1732
17.937500,0,1955,1519
17.958334,0,1988,1537
17.979168,0,1961,1738
18.000000,0,1867,2054
18.020834,0,1798,2286
18.041668,0,1828,2311
18.062500,0,1960,2182
18.083334,0,2218,2028
18.104168,0,2414,1920
18.125000,0,2502,1996
18.145834,0,2402,2155
18.166668,0,2152,2368
18.187500,0,1803,2413
18.208334,0,1545,2250
18.229168,0,1507,1931
18.250000,0,1677,1615
18.270834,0,1956,1419
18.291668,0,2215,1543
18.312500,0,2318,1890
18.333334,4095,2307,2314
18.354168,4095,2220,2594
18.375000,4095,2153,2606
18.395834,4095,2153,2401
18.416668,4095,2179,2085
18.437500,4095,2214,1797
18.458334,4095,2145,1699
18.479168,4095,1994,1795
18.500000,4095,1797,1955
18.520834,4095,1638,2059
18.541668,4095,1575,2055
18.562500,4095,1696,1935
18.583334,4095,1952,1797
18.604168,4095,2285,1728
18.625000,4095,2479,1827
18.645834,4095,2467,2123
18.666668,4095,2247,2379
18.687500,4095,1953,2506
18.708334,4095,1760,2400
18.729168,4095,1732,2089
18.750000,0,1835,1739
18.770834,0,1959,1507
18.791668,0,2024,1505
18.812500,0,1967,1737
18.833334,0,1835,2028
18.854168,0,1766,2241
18.875000,0,1793,2280
18.895834,0,1928,2147
18.916668,0,2178,1964
18.937500,0,2406,1866
18.958334,0,2472,1895
18.979168,0,2379,2091
19.000000,0,2080,2280
19.020834,0,1734,2337
19.041668,0,1486,2188
19.062500,0,1444,1889
19.083334,0,1615,1513
19.104168,0,1895,1351
19.125000,0,2152,1422
19.145834,0,2245,1769
19.166668,4095,2189,2186
19.187500,4095,2112,2479
19.208334,4095,2052,2506
19.229168,4095,2028,2312
19.250000,4095,2119,1991
19.270834,4095,2148,1734
19.291668,4095,2080,1675
19.312500,4095,1935,1761
19.333334,4095,1734,1953
19.354168,4095,1583,2090
19.375000,4095,1575,2093
19.395834,4095,1704,1966
19.416668,4095,1985,1830
19.437500,4095,2312,1764
19.458334,4095,2501,1890
19.479168,4095,2502,2188
19.500000,4095,2279,2473
19.520834,4095,1999,2624
19.541668,4095,1794,2509
19.562500,4095,1764,2185
19.583334,0,1863,1804
19.604168,0,1993,1579
19.625000,0,2084,1579
19.645834,0,1997,1800
19.666668,0,1902,2095
19.687500,0,1803,2343
19.708334,0,1831,2383
19.729168,0,1987,2252
19.750000,0,2243,2086
19.770834,0,2473,1993
19.791668,0,2542,2023
19.812500,0,2435,2221
19.833334,0,2158,2411
19.854168,0,1796,2465
19.875000,0,1546,2318
19.895834,0,1515,1999
19.916668,0,1679,1634
19.937500,0,1935,1449
19.958334,0,2191,1542
19.979168,0,2313,1868
20.000000,4095,2287,2287
20.020834,4095,2208,2574
20.041668,4095,2152,2629
20.062500,4095,2145,2411
20.083334,4095,2186,2127
20.104168,4095,2210,1859
20.125000,4095,2123,1769
20.145834,4095,1956,1859
20.166668,4095,1775,2050
20.187500,4095,1647,2185
20.208334,4095,1601,2178
20.229168,4095,1743,2031
20.250000,4095,1985,1839
20.270834,4095,2317,1770
20.291668,4095,2496,1865
20.312500,4095,2496,2145
20.333334,4095,2310,2411
20.354168,4095,2049,2575
20.375000,4095,1861,2475
20.395834,4095,1826,2127
20.416668,0,1892,1762
20.437500,0,1999,1536
20.458334,0,2059,1513
20.479168,0,1987,1737
20.500000,0,1899,2029
20.520834,0,1828,2248
20.541668,0,1860,2283
20.562500,0,1992,2158
20.583334,0,2246,1956
20.604168,0,2445,1863
20.625000,0,2506,1903
20.645834,0,2404,2093
20.666668,0,2158,2316
20.687500,0,1794,2440
20.708334,0,1548,2317
20.729168,0,1506,1953
20.750000,0,1635,1605
20.770834,0,1890,1380
20.791668,0,2147,1453
20.812500,0,2253,1793
20.833334,0,2241,2218
20.854168,0,2177,2506
20.875000,0,2116,2563
20.895834,0,2127,2347
20.916668,0,2181,2025
20.937500,0,2183,1730
20.958334,0,2112,1669
20.979168,0,1925,1765
21.000000,0,1734,1994
21.020834,0,1583,2125
21.041668,0,1547,2146
21.062500,0,1669,1984
21.083334,0,1932,1792
21.104168,0,2244,1696
21.125000,0,2405,1767
21.145834,0,2402,2022
21.166668,0,2215,2346
21.187500,0,1954,2478
21.208334,0,1771,2408
21.229168,0,1734,2086
21.250000,0,1801,1711
21.270834,0,1925,1483
21.291668,0,1963,1486
21.312500,0,1895,1675
21.333334,0,1806,1999
21.354168,0,1733,2209
21.375000,0,1768,2249
21.395834,0,1903,2088
21.416668,0,2148,1895
21.437500,0,2370,1795
21.458334,0,2433,1856
21.479168,0,2337,2063
21.500000,0,2089,2305
21.520834,0,1743,2440
21.541668,0,1483,2319
21.562500,0,1442,1986
21.583334,0,1575,1642
21.604168,0,1828,1411
21.625000,0,2082,1452
21.645834,0,2179,1775
21.666668,0,2155,2211
21.687500,0,2083,2510
21.708334,0,2024,2564
21.729168,0,2022,2350
21.750000,0,2113,2049
21.770834,0,2124,1763
21.791668,0,2088,1671
21.812500,0,1928,1775
21.833334,0,1742,1959
21.854168,0,1573,2081
21.875000,0,1541,2089
21.895834,0,1668,1959
21.916668,0,1927,1797
21.937500,0,2252,1696
21.958334,0,2440,1792
21.979168,0,2436,2057
22.000000,0,2244,2344
22.020834,0,1967,2502
22.041668,0,1794,2376
22.062500,0,1768,2057
22.083334,0,1863,1704
22.104168,0,1965,1453
22.125000,0,2024,1447
22.145834,0,1961,1708
22.166668,0,1830,2026
22.187500,0,1741,2250
22.208334,0,1764,2315
22.229168,0,1926,2176
22.250000,0,2152,1966
22.270834,0,2372,1804
22.291668,0,2435,1827
22.312500,0,2349,2022
22.333334,0,2087,2215
22.354168,0,1743,2317
22.375000,0,1504,2187
22.395834,0,1446,1892
22.416668,0,1604,1519
22.437500,0,1863,1287
22.458334,0,2120,1347
22.479168,0,2213,1707
22.500000,0,2180,2122
22.520834,0,2082,2406
22.541668,0,2050,2470
22.562500,0,2026,2247
22.583334,0,2113,1892
22.604168,0,2116,1635
22.625000,0,2052,1543
22.645834,0,1890,1647
22.666668,0,1728,1863
22.687500,0,1570,2061
22.708334,0,1541,2090
22.729168,0,1664,1959
22.750000,0,1862,1762
22.770834,0,2082,1644
22.791668,0,2222,1675
22.812500,0,2251,1868
22.833334,0,2210,2120
22.854168,0,2121,2341
22.875000,0,2063,2379
22.895834,0,2028,2245
22.916668,0,1998,1989
22.937500,0,1959,1771
22.958334,0,1839,1677
22.979168,0,1708,1728
23.000000,0,1610,1888
23.020834,0,1614,2061
23.041668,0,1705,2090
23.062500,0,1858,2018
23.083334,0,2086,1890
23.104168,0,2220,1770
23.125000,0,2279,1775
23.145834,0,2212,1866
23.166668,0,2081,2031
23.187500,0,1922,2153
23.208334,0,1871,2159
23.229168,0,1834,2058
23.250000,0,1829,1898
23.270834,0,1807,1775
23.291668,0,1763,1738
23.312500,0,1736,1799
23.333334,0,1733,1895
23.354168,0,1762,1989
23.375000,0,1856,2025
23.395834,0,1993,1962
23.416668,0,2090,1870
23.437500,0,2126,1829
23.458334,0,2093,1831
23.479168,0,1998,1930
23.500000,0,1931,2031
23.520834,0,1858,2083
23.541668,0,1856,2083
23.562500,0,1861,1985
23.583334,0,1889,1891
23.604168,0,1888,1797
23.625000,0,1858,1762
23.645834,0,1826,1798
23.666668,0,1800,1863
23.687500,0,1829,1957
23.708334,0,1893,2029
23.729168,0,1991,2023
23.750000,0,2084,2026
23.770834,0,2124,2016
23.791668,0,2080,2019
23.812500,0,2019,2053
23.833334,0,1959,2081
23.854168,0,1926,2081
23.875000,0,1921,2059
23.895834,0,1926,1985
23.916668,0,1954,1901
23.937500,0,1987,1863
23.958334,0,1985,1897
23.979168,0,1956,1957
24.000000,0,1961,2018
24.020834,0,1967,2090
24.041668,0,1991,2127
24.062500,0,2020,2147
24.083334,0,2051,2125
24.104168,0,2062,2092
24.125000,0,2048,2059
24.145834,0,1999,2023
24.166668,0,1966,2030
24.187500,0,1953,2021
24.208334,0,1959,1984
24.229168,0,1994,1965
24.250000,0,1992,1930
24.270834,0,1984,1891
24.291668,0,1985,1897
24.312500,0,1959,1954
24.333334,0,1923,2028
24.354168,0,1930,2085
24.375000,0,1934,2145
24.395834,0,1935,2146
24.416668,0,1961,2095
24.437500,0,1987,1996
24.458334,0,1999,1920
24.479168,0,1998,1893
24.500000,0,1990,1895
24.520834,0,1996,1929
24.541668,0,1999,1954
24.562500,0,1991,1992
24.583334,0,1995,1965
24.604168,0,1994,1953
24.625000,0,1996,1923
24.645834,0,1965,1955
24.666668,0,1966,1987
24.687500,0,1967,2058
24.708334,0,1986,2095
24.729168,0,1999,2081
24.750000,0,2054,2026
24.770834,0,2094,1929
24.791668,0,2084,1888
24.812500,0,2082,1863
24.833334,0,2053,1926
24.854168,0,1986,1999
24.875000,0,1961,2050
24.895834,0,1952,2083
24.916668,0,1964,2083
24.937500,0,1961,2018
24.958334,0,1952,1987
24.979168,0,1921,1953
25.000000,4095,1929,1992
25.020834,4095,1935,2017
25.041668,4095,1967,2063
25.062500,4095,2016,2061
25.083334,4095,2059,2020
25.104168,4095,2093,1962
25.125000,4095,2054,1927
25.145834,4095,1989,1930
25.166668,4095,1952,1959
25.187500,4095,1901,2031
25.208334,4095,1900,2062
25.229168,4095,1922,2084
25.250000,4095,1958,2031
25.270834,4095,1998,1965
25.291668,4095,1990,1932
25.312500,4095,1985,1924
25.333334,4095,1991,1958
25.354168,4095,1987,1987
25.375000,4095,1990,2020
25.395834,4095,1999,2020
25.416668,0,1984,1995
25.437500,0,1989,1957
25.458334,0,1953,1953
25.479168,0,1928,1957
25.500000,0,1933,1987
25.520834,0,1925,2021
25.541668,0,1967,2022
25.562500,0,1999,2026
25.583334,0,2023,1987
25.604168,0,2031,1922
25.625000,0,2027,1901
25.645834,0,1998,1930
25.666668,0,1988,1961
25.687500,0,1985,2017
25.708334,0,1988,2059
25.729168,0,1988,2081
25.750000,0,1984,2054
25.770834,0,1991,1994
25.791668,0,1964,1962
25.812500,0,1959,1954
25.833334,4095,1987,1991
25.854168,4095,1998,2021
25.875000,4095,2030,2029
25.895834,4095,2091,2030
25.916668,4095,2093,2029
25.937500,4095,2050,1989
25.958334,4095,1991,1994
25.979168,4095,1967,1987
26.000000,4095,1929,2025
26.020834,4095,1927,2048
26.041668,4095,1957,2060
26.062500,4095,1955,2053
26.083334,4095,1961,2016
26.104168,4095,1952,1991
26.125000,4095,1959,1996
26.145834,4095,1956,1991
26.166668,4095,1963,2018
26.187500,4095,1961,2063
26.208334,4095,1990,2056
26.229168,4095,1990,2058
26.250000,0,1958,2020
26.270834,0,1929,1967
26.291668,0,1899,1958
26.312500,0,1896,1953
26.333334,0,1896,1967
26.354168,0,1890,1984
26.375000,0,1903,1988
26.395834,0,1924,1957
26.416668,0,1922,1922
26.437500,0,1899,1891
26.458334,0,1890,1889
26.479168,0,1889,1894
26.500000,0,1898,1903
26.520834,0,1935,1954
26.541668,0,1931,1963
26.562500,0,1921,1955
26.583334,0,1897,1935
26.604168,0,1868,1870
26.625000,0,1869,1833
26.645834,0,1859,1835
26.666668,4095,1888,1836
26.687500,4095,1927,1888
26.708334,4095,1960,1899
26.729168,4095,1991,1924
26.750000,4095,1967,1895
26.770834,4095,1957,1891
26.791668,4095,1930,1859
26.812500,4095,1898,1858
26.833334,4095,1903,1894
26.854168,4095,1921,1925
26.875000,4095,1954,1959
26.895834,4095,1965,1957
26.916668,4095,1959,1966
26.937500,4095,1990,1930
26.958334,4095,1987,1920
26.979168,4095,1986,1933
27.000000,4095,1961,1958
27.020834,4095,1932,1965
27.041668,4095,1891,1933
27.062500,4095,1865,1860
27.083334,0,1865,1794
27.104168,0,1863,1773
27.125000,0,1896,1794
27.145834,0,1891,1860
27.166668,0,1897,1928
27.187500,0,1900,1998
27.208334,0,1900,2019
27.229168,0,1921,1991
27.250000,0,1925,1953
27.270834,0,1933,1889
27.291668,0,1933,1869
27.312500,0,1893,1902
27.333334,0,1827,1921
27.354168,0,1728,1934
27.375000,0,1664,1892
27.395834,0,1644,1798
27.416668,0,1743,1671
27.437500,0,1927,1642
27.458334,0,2113,1703
27.479168,0,2211,1901
27.500000,4095,2210,2119
27.520834,4095,2112,2272
27.541668,4095,1990,2318
27.562500,4095,1929,2188
27.583334,4095,1894,2018
27.604168,4095,1868,1837
27.625000,4095,1867,1706
27.645834,4095,1831,1699
27.666668,4095,1762,1761
27.687500,4095,1736,1864
27.708334,4095,1710,1896
27.729168,4095,1772,1895
27.750000,4095,1929,1862
27.770834,4095,2146,1870
27.791668,4095,2312,1955
27.812500,4095,2336,2120
27.833334,4095,2243,2307
27.854168,4095,1999,2381
27.875000,4095,1829,2274
27.895834,4095,1735,2025
27.916668,0,1774,1773
27.937500,0,1888,1575
27.958334,0,1960,1580
27.979168,0,1967,1765
28.000000,0,1962,2020
28.020834,0,1932,2250
28.041668,0,1996,2368
28.062500,0,2123,2338
28.083334,0,2279,2247
28.104168,0,2412,2146
28.125000,0,2499,2117
28.145834,0,2433,2208
28.166668,0,2213,2315
28.187500,0,1902,2341
28.208334,0,1675,2221
28.229168,0,1569,1931
28.250000,0,1678,1665
28.270834,0,1931,1543
28.291668,0,2180,1633
28.312500,0,2316,1966
28.333334,4095,2310,2368
28.354168,4095,2255,2665
28.375000,4095,2211,2721
28.395834,4095,2179,2529
28.416668,4095,2191,2217
28.437500,4095,2189,1895
28.458334,4095,2145,1762
28.479168,4095,1997,1800
28.500000,4095,1827,1957
28.520834,4095,1703,2095
28.541668,4095,1674,2154
28.562500,4095,1794,2063
28.583334,4095,1996,1952
28.604168,4095,2275,1888
28.625000,4095,2443,1963
28.645834,4095,2447,2221
28.666668,4095,2241,2438
28.687500,4095,1956,2534
28.708334,4095,1763,2410
28.729168,4095,1711,2083
28.750000,0,1802,1699
28.770834,0,1902,1446
28.791668,0,1962,1455
28.812500,0,1961,1678
28.833334,0,1867,1956
28.854168,0,1805,2189
28.875000,0,1837,2285
28.895834,0,1985,2181
28.916668,0,2185,2051
28.937500,0,2377,1959
28.958334,0,2433,1996
28.979168,0,2314,2153
29.000000,0,2059,2304
29.020834,0,1734,2318
29.041668,0,1537,2154
29.062500,0,1506,1826
29.083334,0,1669,1480
29.104168,0,1921,1323
29.125000,0,2177,1451
29.145834,0,2250,1839
29.166668,4095,2216,2280
29.187500,4095,2126,2568
29.208334,4095,2057,2600
29.229168,4095,2050,2372
29.250000,4095,2085,2063
29.270834,4095,2122,1770
29.291668,4095,2062,1668
29.312500,4095,1928,1743
29.333334,4095,1774,1924
29.354168,4095,1668,2049
29.375000,4095,1635,2056
29.395834,4095,1770,1953
29.416668,4095,1985,1828
29.437500,4095,2277,1798
29.458334,4095,2415,1933
29.479168,4095,2409,2214
29.500000,4095,2213,2444
29.520834,4095,1924,2534
29.541668,4095,1762,2377
29.562500,4095,1732,2053
29.583334,0,1800,1637
29.604168,0,1931,1411
29.625000,0,1961,1415
29.645834,0,1934,1664
29.666668,0,1836,1964
29.687500,0,1764,2190
29.708334,0,1771,2255
29.729168,0,1902,2146
29.750000,0,2123,1954
29.770834,0,2306,1866
29.791668,0,2377,1928
29.812500,0,2276,2080
29.833334,0,1999,2243
29.854168,0,1706,2287
29.875000,0,1477,2121
29.895834,0,1444,1801
29.916668,0,1612,1475
29.937500,0,1867,1319
29.958334,0,2119,1411
29.979168,0,2242,1773
30.000000,4095,2216,2191
30.020834,4095,2113,2478
30.041668,4095,2061,2478
30.062500,4095,2030,2285
30.083334,4095,2084,1926
30.104168,4095,2083,1666
30.125000,4095,2049,1579
30.145834,4095,1903,1705
30.166668,4095,1738,1893
30.187500,4095,1610,2050
30.208334,4095,1572,2052
30.229168,4095,1697,1967
30.250000,4095,1964,1805
30.270834,4095,2252,1771
30.291668,4095,2435,1865
30.312500,4095,2446,2148
30.333334,4095,2253,2405
30.354168,4095,1963,2504
30.375000,4095,1770,2379
30.395834,4095,1729,2080
30.416668,0,1803,1696
30.437500,0,1923,1475
30.458334,0,1993,1487
30.479168,0,1931,1703
30.500000,0,1825,1993
30.520834,0,1765,2218
30.541668,0,1792,2250
30.562500,0,1931,2119
30.583334,0,2179,1934
30.604168,0,2408,1859
30.625000,0,2476,1902
30.645834,0,2383,2092
30.666668,0,2089,2280
30.687500,0,1739,2351
30.708334,0,1480,2188
30.729168,0,1409,1866
30.750000,0,1574,1536
30.770834,0,1856,1353
30.791668,0,2119,1477
30.812500,0,2221,1798
30.833334,4095,2189,2222
30.854168,4095,2087,2504
30.875000,4095,1993,2532
30.895834,4095,1985,2304
30.916668,4095,2029,1997
30.937500,4095,2090,1708
30.958334,4095,2019,1603
30.979168,4095,1862,1703
31.000000,4095,1674,1870
31.020834,4095,1537,1991
31.041668,4095,1507,1994
31.062500,4095,1647,1889
31.083334,4095,1902,1740
31.104168,4095,2249,1667
31.125000,4095,2445,1792
31.145834,4095,2435,2059
31.166668,4095,2210,2370
31.187500,4095,1903,2496
31.208334,4095,1703,2380
31.229168,4095,1669,2080
31.250000,0,1795,1742
31.270834,0,1925,1539
31.291668,0,1999,1548
31.312500,0,1959,1767
31.333334,0,1867,2095
31.354168,0,1768,2283
31.375000,0,1805,2312
31.395834,0,1960,2185
31.416668,0,2212,1998
31.437500,0,2412,1871
31.458334,0,2499,1925
31.479168,0,2409,2126
31.500000,0,2112,2345
31.520834,0,1764,2411
31.541668,0,1504,2286
31.562500,0,1486,1957
31.583334,0,1670,1637
31.604168,0,1960,1444
31.625000,0,2222,1513
31.645834,0,2314,1825
31.666668,4095,2253,2243
31.687500,4095,2151,2507
31.708334,4095,2085,2536
31.729168,4095,2094,2337
31.750000,4095,2147,2029
31.770834,4095,2178,1766
31.791668,4095,2118,1674
31.812500,4095,1964,1767
31.833334,4095,1769,1965
31.854168,4095,1614,2081
31.875000,4095,1583,2051
31.895834,4095,1706,1902
31.916668,4095,1999,1737
31.937500,4095,2314,1666
31.958334,4095,2508,1799
31.979168,4095,2507,2049
32.000000,4095,2278,2350
32.020836,4095,1989,2504
32.041668,4095,1795,2409
32.062500,4095,1743,2080
32.083336,0,1835,1731
32.104168,0,1960,1505
32.125000,0,2027,1516
32.145836,0,1959,1743
32.166668,0,1839,2019
32.187500,0,1767,2221
32.208336,0,1771,2252
32.229168,0,1934,2126
32.250000,0,2176,1959
32.270836,0,2408,1890
32.291668,0,2478,1958
32.312500,0,2371,2145
32.333336,0,2090,2345
32.354168,0,1730,2435
32.375000,0,1483,2280
32.395836,0,1444,1955
32.416668,0,1632,1607
32.437500,0,1891,1391
32.458336,0,2159,1482
32.479168,0,2244,1839
32.500000,4095,2213,2250
32.520836,4095,2147,2541
32.541668,4095,2092,2600
32.562500,4095,2083,2400
32.583336,4095,2151,2088
32.604168,4095,2154,1792
32.625000,4095,2093,1703
32.645836,4095,1927,1803
32.666668,4095,1734,1985
32.687500,4095,1581,2095
32.708336,4095,1544,2083
32.729168,4095,1671,1965
32.750000,4095,1931,1792
32.770836,4095,2241,1703
32.791668,4095,2439,1804
32.812500,4095,2406,2063
32.833336,4095,2222,2345
32.854168,4095,1921,2504
32.875000,4095,1731,2383
32.895836,4095,1700,2080
32.916668,0,1802,1703
32.937500,0,1897,1487
32.958336,0,1956,1514
32.979168,0,1900,1728
33.000000,0,1794,2018
33.020836,0,1707,2253
33.041668,0,1765,2274
33.062500,0,1935,2120
33.083336,0,2182,1932
33.104168,0,2407,1830
33.125000,0,2501,1871
33.145836,0,2404,2093
33.166668,0,2159,2319
33.187500,0,1796,2415
33.208336,0,1568,2313
33.229168,0,1514,1990
33.250000,0,1666,1636
33.270836,0,1928,1442
33.291668,0,2157,1510
33.312500,0,2279,1827
33.333336,4095,2247,2242
33.354168,4095,2189,2536
33.375000,4095,2121,2543
33.395836,4095,2125,2340
33.416668,4095,2178,1995
33.437500,4095,2186,1732
33.458336,4095,2116,1647
33.479168,4095,1927,1761
33.500000,4095,1742,1964
33.520836,4095,1611,2125
33.541668,4095,1568,2146
33.562500,4095,1708,1998
33.583336,4095,1961,1825
33.604168,4095,2249,1743
33.625000,4095,2441,1838
33.645836,4095,2411,2113
33.666668,4095,2219,2381
33.687500,4095,1957,2528
33.708336,4095,1764,2443
33.729168,4095,1733,2120
33.750000,0,1835,1735
33.770836,0,1931,1506
33.791668,0,1992,1509
33.812500,0,1932,1766
33.833336,0,1838,2057
33.854168,0,1792,2311
33.875000,0,1832,2339
33.895836,0,1965,2180
33.916668,0,2219,1967
33.937500,0,2400,1869
33.958336,0,2475,1925
33.979168,0,2375,2119
34.000000,0,2112,2344
34.020836,0,1775,2441
34.041668,0,1537,2317
34.062500,0,1504,1988
34.083336,0,1633,1611
34.104168,0,1898,1413
34.125000,0,2122,1481
34.145836,0,2216,1799
34.166668,4095,2210,2208
34.187500,4095,2117,2506
34.208336,4095,2088,2564
34.229168,4095,2088,2346
34.250000,4095,2158,2019
34.270836,4095,2178,1742
34.291668,4095,2116,1638
34.312500,4095,1952,1739
34.333336,4095,1771,1922
34.354168,4095,1609,2086
34.375000,4095,1583,2123
34.395836,4095,1711,1997
34.416668,4095,1963,1834
34.437500,4095,2278,1734
34.458336,4095,2441,1858
34.479168,4095,2443,2117
34.500000,4095,2255,2405
34.520836,4095,1988,2562
34.541668,4095,1824,2445
34.562500,4095,1804,2114
34.583336,0,1895,1763
34.604168,0,1989,1513
34.625000,0,2027,1519
34.645836,0,1990,1763
34.666668,0,1869,2085
34.687500,0,1802,2339
34.708336,0,1837,2371
34.729168,0,1988,2221
34.750000,0,2242,2026
34.770836,0,2434,1890
34.791668,0,2500,1921
34.812500,0,2374,2085
34.833336,0,2125,2318
34.854168,0,1768,2438
34.875000,0,1549,2309
34.895836,0,1504,1994
34.916668,0,1642,1645
34.937500,0,1895,1419
34.958336,0,2123,1515
34.979168,0,2219,1835
35.000000,4095,2187,2278
35.020836,4095,2093,2563
35.041668,4095,2050,2597
35.062500,4095,2082,2340
35.083336,4095,2114,1986
35.104168,4095,2149,1676
35.125000,4095,2083,1578
35.145836,4095,1901,1675
35.166668,4095,1736,1888
35.187500,4095,1601,2062
35.208336,4095,1581,2082
35.229168,4095,1700,1933
35.250000,4095,1957,1773
35.270836,4095,2252,1674
35.291668,4095,2435,1769
35.312500,4095,2403,2021
35.333336,4095,2183,2305
35.354168,4095,1899,2438
35.375000,4095,1740,2345
35.395836,4095,1699,1991
35.416668,0,1795,1605
35.437500,0,1926,1344
35.458336,0,1966,1356
35.479168,0,1889,1575
35.500000,0,1774,1926
35.520836,0,1699,2182
35.541668,0,1729,2245
35.562500,0,1898,2125
35.583336,0,2121,1903
35.604168,0,2316,1761
35.625000,0,2381,1800
35.645836,0,2285,1967
35.666668,0,1987,2189
35.687500,0,1674,2282
35.708336,0,1455,2127
35.729168,0,1420,1804
35.750000,0,1578,1451
35.770836,0,1836,1255
35.791668,0,2026,1323
35.812500,0,2094,1703
35.833336,4095,2051,2119
35.854168,4095,1957,2442
35.875000,4095,1922,2466
35.895836,4095,1965,2241
35.916668,4095,2018,1888
35.937500,4095,2017,1568
35.958336,4095,1958,1475
35.979168,4095,1806,1568
36.000000,4095,1604,1775
36.020836,4095,1486,1959
36.041668,4095,1475,1967
36.062500,4095,1614,1838
36.083336,4095,1868,1670
36.104168,4095,2155,1548
36.125000,4095,2304,1642
36.145836,4095,2287,1935
36.166668,4095,2090,2212
36.187500,4095,1824,2381
36.208336,4095,1672,2280
36.229168,4095,1674,1967
36.250000,0,1768,1575
36.270836,0,1903,1313
36.291668,0,1920,1315
36.312500,0,1860,1571
36.333336,0,1766,1920
36.354168,0,1705,2184
36.375000,0,1739,2241
36.395836,0,1922,2117
36.416668,0,2154,1921
36.437500,0,2370,1798
36.458336,0,2442,1831
36.479168,0,2315,2019
36.500000,0,2052,2222
36.520836,0,1737,2346
36.541668,0,1519,2210
36.562500,0,1472,1903
36.583336,0,1645,1539
36.604168,0,1893,1351
36.625000,0,2118,1452
36.645836,0,2189,1825
36.666668,4095,2182,2245
36.687500,4095,2123,2592
36.708336,4095,2090,2634
36.729168,4095,2116,2414
36.750000,4095,2144,2050
36.770836,4095,2150,1761
36.791668,4095,2088,1664
36.812500,4095,1901,1763
36.833336,4095,1743,1960
36.854168,4095,1602,2125
36.875000,4095,1602,2126
36.895836,4095,1743,2018
36.916668,4095,1990,1833
36.937500,4095,2283,1743
36.958336,4095,2432,1837
36.979168,4095,2381,2116
37.000000,4095,2179,2409
37.020836,4095,1924,2566
37.041668,4095,1761,2446
37.062500,4095,1730,2126
37.083336,0,1838,1711
37.104168,0,1926,1472
37.125000,0,1954,1447
37.145836,0,1888,1706
37.166668,0,1799,2017
37.187500,0,1734,2284
37.208336,0,1763,2351
37.229168,0,1925,2216
37.250000,0,2189,1988
37.270836,0,2369,1829
37.291668,0,2440,1861
37.312500,0,2342,2031
37.333336,0,2093,2272
37.354168,0,1766,2376
37.375000,0,1539,2281
37.395836,0,1513,1955
37.416668,0,1645,1575
37.437500,0,1892,1385
37.458336,0,2119,1449
37.479168,0,2223,1802
37.500000,0,2184,2221
37.520836,0,2118,2565
37.541668,0,2083,2626
37.562500,0,2120,2410
37.583336,0,2152,2087
37.604168,0,2159,1771
37.625000,0,2080,1647
37.645836,0,1921,1738
37.666668,0,1739,1952
37.687500,0,1607,2112
37.708336,0,1577,2149
37.729168,0,1731,2021
37.750000,0,1967,1835
37.770836,0,2275,1760
37.791668,0,2438,1863
37.812500,0,2400,2123
37.833336,0,2210,2414
37.854168,0,1963,2574
37.875000,0,1801,2473
37.895836,0,1775,2114
37.916668,0,1893,1735
37.937500,0,1990,1483
37.958336,0,2050,1484
37.979168,0,1990,1737
38.000000,0,1866,2054
38.020836,0,1803,2347
38.041668,0,1863,2406
38.062500,0,2023,2254
38.083336,0,2248,2018
38.104168,0,2437,1889
38.125000,0,2499,1898
38.145836,0,2403,2093
38.166668,0,2126,2315
38.187500,0,1796,2415
38.208336,0,1575,2313
38.229168,0,1541,1955
38.250000,0,1703,1611
38.270836,0,1958,1383
38.291668,0,2186,1483
38.312500,0,2283,1807
38.333336,0,2249,2287
38.354168,0,2157,2574
38.375000,0,2117,2632
38.395836,0,2155,2371
38.416668,0,2184,2025
38.437500,0,2191,1703
38.458336,0,2127,1583
38.479168,0,1931,1679
38.500000,0,1743,1897
38.520836,0,1606,2057
38.541668,0,1606,2095
38.562500,0,1732,1963
38.583336,0,1990,1767
38.604168,0,2314,1671
38.625000,0,2473,1792
38.645836,0,2465,2048
38.666668,0,2248,2374
38.687500,0,1967,2534
38.708336,0,1793,2466
38.729168,0,1768,2113
38.750000,0,1857,1730
38.770836,0,1961,1479
38.791668,0,1993,1485
38.812500,0,1927,1703
38.833336,0,1830,2063
38.854168,0,1743,2344
38.875000,0,1798,2400
38.895836,0,1961,2283
38.916668,0,2208,2056
38.937500,0,2411,1926
38.958336,0,2478,1954
38.979168,0,2370,2115
39.000000,0,2084,2349
39.020836,0,1761,2466
39.041668,0,1538,2349
39.062500,0,1486,1987
39.083336,0,1646,1635
39.104168,0,1897,1389
39.125000,0,2123,1455
39.145836,0,2223,1794
39.166668,0,2191,2248
39.187500,0,2118,2539
39.208336,0,2057,2607
39.229168,0,2085,2377
39.250000,0,2122,2051
39.270836,0,2121,1735
39.291668,0,2018,1611
39.312500,0,1863,1711
39.333336,0,1667,1924
39.354168,0,1551,2083
39.375000,0,1540,2090
39.395836,0,1647,1964
39.416668,0,1857,1775
39.437500,0,2088,1639
39.458336,0,2223,1664
39.479168,0,2247,1859
39.500000,0,2183,2127
39.520836,0,2094,2310
39.541668,0,2055,2378
39.562500,0,2020,2244
39.583336,0,1989,1987
39.604168,0,1931,1764
39.625000,0,1825,1667
39.645836,0,1702,1732
39.666668,0,1614,1893
39.687500,0,1612,2027
39.708336,0,1711,2092
39.729168,0,1899,1992
39.750000,0,2087,1861
39.770836,0,2214,1740
39.791668,0,2252,1735
39.812500,0,2154,1839
39.833336,0,2017,1999
39.854168,0,1897,2121
39.875000,0,1830,2149
39.895836,0,1797,2052
39.916668,0,1801,1890
39.937500,0,1794,1775
39.958336,0,1763,1737
39.979168,0,1743,1798
40.000000,0,1743,1891
40.020836,0,1798,1997
40.041668,0,1899,1999
40.062500,0,1999,1957
40.083336,0,2124,1860
40.104168,0,2154,1798
40.125000,0,2126,1806
40.145836,0,2057,1892
40.166668,0,1964,1984
40.187500,0,1901,2082
40.208336,0,1900,2081
40.229168,0,1952,1991
40.250000,0,1967,1869
40.270836,0,1966,1773
40.291668,0,1931,1739
40.312500,0,1898,1772
40.333336,0,1858,1860
40.354168,0,1897,1920
40.375000,0,1965,1961
40.395836,0,2031,1960
40.416668,0,2123,1953
40.437500,0,2119,1931
40.458336,0,2083,1957
40.479168,0,2023,2022
40.500000,0,1953,2060
40.520836,0,1935,2061
40.541668,0,1930,1999
40.562500,0,1927,1925
40.583336,0,1963,1862
40.604168,0,1961,1806
40.625000,0,1962,1835
40.645836,0,1952,1902
40.666668,0,1959,1988
40.687500,0,1953,2057
40.708336,0,1994,2121
40.729168,0,2029,2115
40.750000,0,2080,2116
40.770836,0,2089,2090
40.791668,0,2052,2050
40.812500,0,2016,2052
40.833336,0,1989,2051
40.854168,0,1962,2052
40.875000,0,1991,2028
40.895836,0,1995,2017
40.916668,0,2030,1966
40.937500,0,2028,1954
40.958336,0,1997,1959
40.979168,0,1989,1998
41.000000,0,1967,2050
41.020836,0,1957,2127
41.041668,0,1964,2178
41.062500,0,1987,2189
41.083336,0,2018,2155
41.104168,0,2023,2085
41.125000,0,2019,1998
41.145836,0,1999,1957
41.166668,0,1985,1924
41.187500,0,1963,1959
41.208336,0,1958,1991
41.229168,0,1961,1993
41.250000,0,1966,1989
41.270836,0,1963,1992
41.291668,0,1925,1965
41.312500,0,1900,1991
41.333336,0,1895,2027
41.354168,0,1888,2061
41.375000,0,1903,2092
41.395836,0,1934,2082
41.416668,0,1965,2028
41.437500,0,1991,1954
41.458336,0,1996,1901
41.479168,0,1966,1864
41.500000,0,1957,1897
41.520836,0,1920,1985
41.541668,0,1928,2055
41.562500,0,1934,2089
41.583336,0,1930,2051
41.604168,0,1953,1995
41.625000,0,1932,1954
41.645836,0,1933,1935
41.666668,0,1925,1964
41.687500,0,1921,2018
41.708336,0,1961,2048
41.729168,0,2030,2056
41.750000,0,2094,2024
41.770836,0,2115,1993
41.791668,0,2083,1959
41.812500,0,2058,1961
41.833336,0,1993,1987
41.854168,0,1955,2063
41.875000,0,1987,2116
41.895836,0,2023,2120
41.916668,0,2082,2117
41.937500,0,2090,2059
41.958336,0,2089,2020
41.979168,0,2086,2023
42.000000,0,2062,2023
42.020836,0,2048,2052
42.041668,0,2020,2091
42.062500,0,2056,2090
42.083336,0,2081,2048
42.104168,0,2056,2016
42.125000,0,2025,2021
42.145836,0,1989,2023
42.166668,0,1953,2085
42.187500,0,1959,2112
42.208336,0,1987,2149
42.229168,0,2029,2121
42.250000,0,2095,2080
42.270836,0,2086,2048
42.291668,0,2084,2020
42.312500,0,2051,2016
42.333336,0,1991,2027
42.354168,0,1989,2063
42.375000,0,2022,2093
42.395836,0,2030,2115
42.416668,0,2054,2095
42.437500,0,2054,2049
42.458336,0,1995,2030
42.479168,0,1992,2025
42.500000,0,1994,2052
42.520836,0,2017,2050
42.541668,0,2057,2060
42.562500,0,2087,2051
42.583336,0,2113,2030
42.604168,0,2080,1998
42.625000,0,2058,1967
42.645836,0,1987,1966
42.666668,0,1984,1964
42.687500,0,1992,1963
42.708336,0,1998,1995
42.729168,0,2031,1985
42.750000,0,2019,1986
42.770836,0,2019,1986
42.791668,0,1994,1989
42.812500,0,1966,2022
42.833336,0,1987,2026
42.854168,0,1993,2059
42.875000,0,2024,2055
42.895836,0,2061,2051
42.916668,0,2054,2052
42.937500,0,2028,2024
42.958336,0,1997,2025
42.979168,0,1960,2056
43.000000,0,1963,2063
43.020836,0,1986,2085
43.041668,0,2016,2118
43.062500,0,2060,2124
43.083336,0,2090,2123
43.104168,0,2091,2116
43.125000,0,2086,2112
43.145836,0,2083,2119
43.166668,0,2094,2121
43.187500,0,2091,2149
43.208336,0,2114,2185
43.229168,0,2090,2181
43.250000,0,2080,2176
43.270836,0,2055,2181
43.291668,0,2018,2145
43.312500,0,2026,2145
43.333336,0,2058,2145
43.354168,0,2095,2155
43.375000,0,2119,2150
43.395836,0,2118,2146
43.416668,0,2112,2124
43.437500,0,2059,2091
43.458336,0,2048,2082
43.479168,0,1999,2055
43.500000,0,1998,2063
43.520836,0,2020,2082
43.541668,0,2026,2120
43.562500,0,2026,2113
43.583336,0,2019,2125
43.604168,0,1991,2091
43.625000,0,1989,2084
43.645836,0,1999,2063
43.666668,0,2020,2051
43.687500,0,2082,2051
43.708336,0,2083,2051
43.729168,0,2085,2029
43.750000,0,2082,2031
43.770836,0,2053,1999
43.791668,0,1990,1989
43.812500,0,1991,1990
43.833336,0,1993,2016
43.854168,0,1989,2027
43.875000,0,2018,2031
43.895836,0,2024,2021
43.916668,0,2019,1995
43.937500,0,1999,1967
43.958336,0,2017,1928
43.979168,0,2023,1930
44.000000,0,2023,1920
44.020836,0,2050,1931
44.041668,0,2062,1959
44.062500,0,2023,1967
44.083336,0,1994,1953
44.104168,0,1964,1966
44.125000,0,1920,1961
44.145836,0,1922,1965
44.166668,0,1924,1955
44.187500,0,1921,1963
44.208336,0,1954,1963
44.229168,0,1952,1952
44.250000,0,1954,1931
44.270836,0,1957,1902
44.291668,0,1925,1896
44.312500,0,1925,1863
44.333336,0,1895,1871
44.354168,0,1903,1858
44.375000,0,1898,1864
44.395836,0,1899,1891
44.416668,0,1889,1901
44.437500,0,1895,1891
44.458336,0,1900,1896
44.479168,0,1927,1900
44.500000,0,1933,1923
44.520836,0,1922,1931
44.541668,0,1931,1934
44.562500,0,1895,1925
44.583336,0,1870,1891
44.604168,0,1858,1865
44.625000,0,1834,1856
44.645836,0,1801,1824
44.666668,0,1807,1831
44.687500,0,1804,1827
44.708336,0,1795,1828
44.729168,0,1830,1827
44.750000,0,1839,1826
44.770836,0,1865,1807
44.791668,0,1898,1800
44.812500,0,1891,1799
44.833336,0,1888,1799
44.854168,0,1894,1807
44.875000,0,1870,1830
44.895836,0,1830,1835
44.916668,0,1807,1835
44.937500,0,1792,1829
44.958336,0,1806,1807
44.979168,0,1795,1804
45.000000,0,1804,1807
45.020836,0,1833,1831
45.041668,0,1834,1836
45.062500,0,1871,1837
45.083336,0,1896,1837
45.104168,0,1899,1824
45.125000,0,1903,1834
45.145836,0,1893,1862
45.166668,0,1891,1865
45.187500,0,1869,1896
45.208336,0,1839,1893
45.229168,0,1838,1899
45.250000,0,1863,1899
45.270836,0,1863,1897
45.291668,0,1899,1902
45.312500,0,1920,1930
45.333336,0,1935,1929
45.354168,0,1930,1962
45.375000,0,1955,1959
45.395836,0,1961,1965
45.416668,0,1967,1966
45.437500,0,1967,1960
45.458336,0,1959,1953
45.479168,0,1924,1965
45.500000,0,1903,1966
45.520836,0,1889,1967
45.541668,0,1888,1953
45.562500,0,1903,1967
45.583336,0,1931,1960
45.604168,0,1959,1935
45.625000,0,1996,1931
45.645836,0,1988,1929
45.666668,0,1995,1927
45.687500,0,1962,1927
45.708336,0,1957,1931
45.729168,0,1921,1933
45.750000,0,1925,1954
45.770836,0,1903,1959
45.791668,0,1921,1958
45.812500,0,1924,1959
45.833336,0,1929,1959
45.854168,0,1922,1957
45.875000,0,1955,1953
45.895836,0,1963,1934
45.916668,0,1989,1931
45.937500,0,2031,1933
45.958336,0,2029,1953
45.979168,0,2049,1962
46.000000,0,2050,1963
46.020836,0,1991,1997
46.041668,0,1965,1995
46.062500,0,1966,2019
46.083336,0,1965,2017
46.104168,0,1961,1991
46.125000,0,1989,1996
46.145836,0,1995,1985
46.166668,0,1997,1960
46.187500,0,1995,1957
46.208336,0,1985,1961
46.229168,0,1994,1964
46.250000,0,2022,1967
46.270836,0,2027,1985
46.291668,0,2022,1967
46.312500,0,1996,1987
46.333336,0,1984,1998
46.354168,0,1985,1995
46.375000,0,1952,2022
46.395836,0,1960,2024
46.416668,0,1962,2017
46.437500,0,1964,1990
46.458336,0,1986,1985
46.479168,0,2021,1993
46.500000,0,2031,2028
46.520836,0,2031,2028
46.541668,0,2026,2054
46.562500,0,2017,2054
46.583336,0,1988,2030
46.604168,0,1988,2020
46.625000,0,1955,2028
46.645836,0,1957,2026
46.666668,0,1927,2027
46.687500,0,1920,2017
46.708336,0,1932,2016
46.729168,0,1932,2021
46.750000,0,1920,1998
46.770836,0,1933,1954
46.791668,0,1966,1952
46.812500,0,1959,1934
46.833336,0,1955,1962
46.854168,0,1934,1962
46.875000,0,1898,1987
46.895836,0,1863,1967
46.916668,0,1839,1964
46.937500,0,1832,1925
46.958336,0,1836,1899
46.979168,0,1862,1895
47.000000,0,1858,1889
47.020836,0,1862,1888
47.041668,0,1865,1898
47.062500,0,1867,1899
47.083336,0,1891,1892
47.104168,0,1903,1866
47.125000,0,1899,1866
47.145836,0,1922,1898
47.166668,0,1903,1925
47.187500,0,1894,1957
47.208336,0,1901,1959
47.229168,0,1895,1965
47.250000,0,1900,1958
47.270836,0,1896,1961
47.291668,0,1932,1934
47.312500,0,1934,1928
47.333336,0,1962,1929
47.354168,0,1955,1959
47.375000,0,1953,1956
47.395836,0,1965,1966
47.416668,0,1961,1989
47.437500,0,1956,1990
47.458336,0,1934,1990
47.479168,0,1923,1996
47.500000,0,1922,1987
47.520836,0,1895,1994
47.541668,0,1903,1989
47.562500,0,1891,1988
47.583336,0,1924,1960
47.604168,0,1935,1934
47.625000,0,1960,1903
47.645836,0,1998,1923
47.666668,0,1993,1929
47.687500,0,1985,1956
47.708336,0,1989,1989
47.729168,0,1955,1995
47.750000,0,1955,1986
47.770836,0,1922,1957
47.791668,0,1924,1956
47.812500,0,1903,1928
47.833336,0,1923,1925
47.854168,0,1933,1926
47.875000,0,1927,1930
47.895836,0,1953,1927
47.916668,0,1964,1926
47.937500,0,1960,1890
47.958336,0,1992,1895
47.979168,0,1999,1903
48.000000,0,1999,1932
48.020836,0,1993,1958
48.041668,0,1964,1999
48.062500,0,1966,1988
48.083336,0,1962,1994
48.104168,0,1965,1965
48.125000,0,1955,1957
48.145836,0,1965,1966
48.166668,0,1991,1997
48.187500,0,1989,1996
48.208336,0,1999,1997
48.229168,0,2023,1985
48.250000,0,2021,1967
48.270836,0,1988,1963
48.291668,0,1963,1958
48.312500,0,1957,1967
48.333336,0,1924,1986
48.354168,0,1933,1990
48.375000,0,1922,1999
48.395836,0,1931,1991
48.416668,0,1953,1989
48.437500,0,1954,1958
48.458336,0,1953,1952
48.479168,0,1960,1961
48.500000,0,1956,1995
48.520836,0,1986,1998
48.541668,0,1994,2023
48.562500,0,1989,1999
48.583336,0,1961,1999
48.604168,0,1957,1965
48.625000,0,1920,1967
48.645836,0,1926,1965
48.666668,0,1929,1955
48.687500,0,1923,1966
48.708336,0,1934,1984
48.729168,0,1960,1965
48.750000,0,1958,1967
48.770836,0,1960,1954
48.791668,0,1967,1958
48.812500,0,1956,1961
48.833336,0,1964,1990
48.854168,0,1967,2028
48.875000,0,1966,2017
48.895836,0,1954,2016
48.916668,0,1935,1989
48.937500,0,1933,1967
48.958336,0,1923,1956
48.979168,0,1931,1962
49.000000,0,1956,1955
49.020836,0,1987,1967
49.041668,0,1998,1987
49.062500,0,2027,1967
49.083336,0,2023,1956
49.104168,0,1990,1961
49.125000,0,1986,1958
49.145836,0,1954,1953
49.166668,0,1960,1988
49.187500,0,1953,1989
49.208336,0,1933,1992
49.229168,0,1934,1996
49.250000,0,1935,1963
49.270836,0,1954,1964
49.291668,0,1952,1967
49.312500,0,1994,1967
49.333336,0,2028,2021
49.354168,0,2061,2056
49.375000,0,2089,2061
49.395836,0,2082,2081
49.416668,0,2058,2058
49.437500,0,1993,2050
49.458336,0,1965,2056
49.479168,0,1952,2085
49.500000,0,1966,2093
49.520836,0,1961,2126
49.541668,0,1984,2117
49.562500,0,2020,2117
49.583336,0,2018,2094
49.604168,0,2022,2059
49.625000,0,2024,2056
49.645836,0,2027,2086
49.666668,0,2058,2091
49.687500,0,2084,2121
49.708336,0,2087,2119
49.729168,0,2057,2084
49.750000,0,2050,2059
49.770836,0,1990,2049
49.791668,0,1990,2017
49.812500,0,1988,2016
49.833336,0,1999,2025
49.854168,0,2018,2049
49.875000,0,2031,2048
49.895836,0,2031,2018
49.916668,0,2022,2017
49.937500,0,1984,1984
49.958336,0,1965,1998
49.979168,0,1965,1989
50.000000,4095,1959,2016
50.020836,4095,1957,2019
50.041668,4095,1955,1992
50.062500,4095,1927,1965
50.083336,4095,1927,1931
50.104168,4095,1902,1926
50.125000,4095,1901,1923
50.145836,4095,1933,1927
50.166668,4095,1961,1959
50.187500,4095,1991,1989
50.208336,4095,1993,2023
50.229168,4095,1991,2021
50.250000,4095,1992,1997
50.270836,4095,1952,1999
50.291668,4095,1954,1992
50.312500,4095,1955,1995
50.333336,4095,1967,1986
50.354168,4095,1967,1989
50.375000,4095,1995,1999
50.395836,4095,1998,1986
50.416668,0,1991,1953
50.437500,0,1987,1961
50.458336,0,1965,1967
50.479168,0,1965,1985
50.500000,0,1986,1995
50.520836,0,1995,2028
50.541668,0,1996,2029
50.562500,0,1988,1994
50.583336,0,1958,1967
50.604168,0,1959,1964
50.625000,0,1930,1957
50.645836,0,1929,1963
50.666668,0,1959,1960
50.687500,0,1959,1984
50.708336,0,1988,1967
50.729168,0,1995,1960
50.750000,0,1986,1964
50.770836,0,1960,1961
50.791668,0,1955,1954
50.812500,0,1958,1992
50.833336,4095,1967,1995
50.854168,4095,1995,2026
50.875000,4095,1998,2027
50.895836,4095,1992,1996
50.916668,4095,1964,1986
50.937500,4095,1967,1959
50.958336,4095,1964,1930
50.979168,4095,1958,1935
51.000000,4095,1994,1956
51.020836,4095,1994,1995
51.041668,4095,1999,1993
51.062500,4095,1991,1995
51.083336,4095,1992,1990
51.104168,4095,1959,1994
51.125000,4095,1962,1967
51.145836,4095,1961,1964
51.166668,4095,1958,1963
51.187500,4095,1996,1967
51.208336,4095,1992,1963
51.229168,4095,1991,1956
51.250000,0,1994,1960
51.270836,0,1967,1959
51.291668,0,1965,1953
51.312500,0,1991,1995
51.333336,0,1995,2027
51.354168,0,2016,2058
51.375000,0,2055,2063
51.395836,0,2058,2086
51.416668,0,2059,2081
51.437500,0,2020,2055
51.458336,0,1991,2061
51.479168,0,1996,2058
51.500000,0,2018,2051
51.520836,0,2088,2089
51.541668,0,2113,2095
51.562500,0,2124,2112
51.583336,0,2123,2118
51.604168,0,2117,2123
51.625000,0,2114,2149
51.645836,0,2116,2152
51.666668,4095,2112,2191
51.687500,4095,2125,2210
51.708336,4095,2145,2211
51.729168,4095,2124,2177
51.750000,4095,2125,2158
51.770836,4095,2091,2126
51.791668,4095,2082,2090
51.812500,4095,2086,2117
51.833336,4095,2114,2144
51.854168,4095,2113,2177
51.875000,4095,2124,2180
51.895836,4095,2123,2189
51.916668,4095,2121,2147
51.937500,4095,2120,2123
51.958336,4095,2115,2127
51.979168,4095,2093,2123
52.000000,4095,2050,2151
52.020836,4095,1992,2127
52.041668,4095,1931,2095
52.062500,4095,1929,1992
52.083336,0,1931,1933
52.104168,0,1987,1892
52.125000,0,2028,1900
52.145836,0,2054,1984
52.166668,0,2058,2060
52.187500,0,2061,2121
52.208336,0,2021,2152
52.229168,0,1988,2121
52.250000,0,1995,2051
52.270836,0,1993,2023
52.291668,0,1989,1997
52.312500,0,1952,1989
52.333336,0,1894,2023
52.354168,0,1824,2018
52.375000,0,1736,1958
52.395836,0,1730,1838
52.416668,0,1830,1711
52.437500,0,1967,1677
52.458336,0,2153,1767
52.479168,0,2213,1953
52.500000,4095,2210,2184
52.520836,4095,2118,2312
52.541668,4095,1986,2308
52.562500,4095,1902,2154
52.583336,4095,1863,1963
52.604168,4095,1833,1794
52.625000,4095,1825,1707
52.645836,4095,1827,1703
52.666668,4095,1802,1803
52.687500,4095,1774,1869
52.708336,4095,1767,1923
52.729168,4095,1804,1894
52.750000,4095,1934,1859
52.770836,4095,2145,1856
52.791668,4095,2287,1958
52.812500,4095,2315,2124
52.833336,4095,2182,2307
52.854168,4095,1958,2374
52.875000,4095,1795,2280
52.895836,4095,1699,2022
52.916668,0,1728,1738
52.937500,0,1828,1536
52.958336,0,1901,1506
52.979168,0,1926,1675
53.000000,0,1889,1921
53.020836,0,1868,2158
53.041668,0,1890,2242
53.062500,0,1988,2212
53.083336,0,2114,2085
53.104168,0,2252,1961
53.125000,0,2309,1935
53.145836,0,2245,1998
53.166668,0,2049,2088
53.187500,0,1761,2121
53.208336,0,1544,2018
53.229168,0,1482,1767
53.250000,0,1605,1519
53.270836,0,1830,1414
53.291668,0,2082,1515
53.312500,0,2215,1868
53.333336,4095,2242,2249
53.354168,4095,2178,2506
53.375000,4095,2084,2568
53.395836,4095,2054,2378
53.416668,4095,2028,2059
53.437500,4095,2027,1734
53.458336,4095,1990,1615
53.479168,4095,1889,1668
53.500000,4095,1775,1826
53.520836,4095,1697,1958
53.541668,4095,1664,2027
53.562500,4095,1761,1958
53.583336,4095,1959,1865
53.604168,4095,2213,1834
53.625000,4095,2368,1963
53.645836,4095,2377,2223
53.666668,4095,2213,2476
53.687500,4095,1962,2595
53.708336,4095,1796,2472
53.729168,4095,1764,2153
53.750000,0,1826,1774
53.770836,0,1953,1509
53.791668,0,1997,1476
53.812500,0,1994,1706
53.833336,0,1903,1984
53.854168,0,1863,2221
53.875000,0,1889,2314
53.895836,0,1993,2223
53.916668,0,2187,2058
53.937500,0,2345,1964
53.958336,0,2403,1996
53.979168,0,2309,2150
54.000000,0,2091,2305
54.020836,0,1792,2346
54.041668,0,1579,2158
54.062500,0,1571,1834
54.083336,0,1731,1482
54.104168,0,1964,1323
54.125000,0,2187,1447
54.145836,0,2280,1805
54.166668,4095,2243,2248
54.187500,4095,2152,2543
54.208336,4095,2060,2570
54.229168,4095,2052,2369
54.250000,4095,2057,1989
54.270836,4095,2083,1701
54.291668,4095,2017,1607
54.312500,4095,1894,1676
54.333336,4095,1768,1861
54.354168,4095,1645,1998
54.375000,4095,1634,1995
54.395836,4095,1766,1865
54.416668,4095,1967,1733
54.437500,4095,2245,1696
54.458336,4095,2377,1833
54.479168,4095,2351,2127
54.500000,4095,2186,2404
54.520836,4095,1933,2530
54.541668,4095,1762,2401
54.562500,4095,1763,2058
54.583336,0,1839,1677
54.604168,0,1963,1453
54.625000,0,2023,1453
54.645836,0,1991,1703
54.666668,0,1923,2024
54.687500,0,1857,2283
54.708336,0,1865,2348
54.729168,0,1990,2245
54.750000,0,2209,2081
54.770836,0,2379,1966
54.791668,0,2439,1998
54.812500,0,2343,2179
54.833336,0,2084,2337
54.854168,0,1775,2411
54.875000,0,1581,2242
54.895836,0,1545,1897
54.916668,0,1702,1580
54.937500,0,1960,1408
54.958336,0,2184,1504
54.979168,0,2276,1864
55.000000,4095,2249,2282
55.020836,4095,2149,2571
55.041668,4095,2056,2600
55.062500,4095,2055,2369
55.083336,4095,2085,2057
55.104168,4095,2089,1772
55.125000,4095,2059,1677
55.145836,4095,1923,1775
