TimeMS,Input,Output_1,Output_2
0.000000,2047,1959,1987
0.020833,2047,1958,1986
0.041667,2047,1958,1987
0.062500,2047,1955,1985
0.083333,2047,1959,1988
0.104167,2047,1962,1987
0.125000,2047,1963,1986
0.145833,2047,1967,1991
0.166667,2047,1965,1987
0.187500,2047,1963,1987
0.208333,2047,1961,1989
0.229167,2047,1959,1989
0.250000,2047,1960,1987
0.270833,2047,1961,1991
0.291667,2047,1962,1988
0.312500,2047,1965,1989
0.333333,2047,1963,1988
0.354167,2047,1959,1987
0.375000,2047,1958,1987
0.395833,2047,1957,1987
0.416667,2047,1956,1984
0.437500,2047,1962,1989
0.458333,2047,1965,1989
0.479167,2047,1965,1993
0.500000,2047,1987,1995
0.520833,2047,1987,1995
0.541667,2047,1986,1997
0.562500,2047,1984,1997
0.583333,2047,1965,1993
0.604167,2047,1964,1990
0.625000,2047,1961,1985
0.645833,2047,1958,1967
0.666667,2047,1963,1987
0.687500,2047,1963,1988
0.708333,2047,1965,1991
0.729167,2047,1967,1992
0.750000,2047,1967,1994
0.770833,2047,1966,1992
0.791667,2047,1985,1991
0.812500,2047,1967,1989
0.833333,2047,1987,1989
0.854167,2047,1988,1992
0.875000,2047,1990,1998
0.895833,2047,1987,1995
0.916667,2047,1986,1991
0.937500,2047,1967,1991
0.958333,2047,1963,1988
0.979167,2047,1959,1984
1.000000,2047,1959,1967
1.020833,2047,1960,1967
1.041667,2047,1961,1985
1.062500,2047,1963,1986
1.083333,2047,1964,1986
1.104167,2047,1963,1990
1.125000,2047,1963,1987
1.145833,2047,1962,1987
1.166667,2047,1959,1986
1.187500,2047,1959,1986
1.208333,2047,1959,1967
1.229167,2047,1959,1985
1.250000,2047,1959,1967
1.270833,2047,1960,1985
1.291667,2047,1962,1967
1.312500,2047,1963,1986
1.333333,2047,1962,1967
1.354167,2047,1964,1987
1.375000,2047,1986,1992
1.395833,2047,1989,1994
1.416667,2047,1991,1984
1.437500,2047,1995,1984
1.458333,2047,1995,1985
1.479167,2047,1992,1999
1.500000,2047,1988,1995
1.520833,2047,1984,1991
1.541667,2047,1965,1989
1.562500,2047,1963,1988
1.583333,2047,1964,1988
1.604167,2047,1966,1990
1.625000,2047,1967,1989
1.645833,2047,1967,1988
1.666667,2047,1984,1990
1.687500,2047,1966,1991
1.708333,2047,1966,1989
1.729167,2047,1984,1992
1.750000,2047,1986,1995
1.770833,2047,1987,1995
1.791667,2047,1987,1995
1.812500,2047,1986,1993
1.833333,2047,1984,1991
1.854167,2047,1965,1986
1.875000,2047,1963,1984
1.895833,2047,1964,1987
1.916667,2047,1964,1987
1.937500,2047,1964,1986
1.958333,2047,1965,1988
1.979167,2047,1963,1986
2.000000,2047,1963,1985
2.020833,2047,1963,1987
2.041667,2047,1962,1986
2.062500,2047,1958,1967
2.083333,2047,1958,1984
2.104167,2047,1957,1985
2.125000,2047,1957,1967
2.145833,2047,1957,1967
2.166667,2047,1955,1966
2.187500,2047,1957,1966
2.208333,2047,1954,1962
2.229167,2047,1954,1963
2.250000,2047,1953,1961
2.270833,2047,1967,1964
2.291667,2047,1967,1964
2.312500,2047,1964,1961
2.333333,2047,1962,1959
2.354167,2047,1961,1956
2.375000,2047,1962,1957
2.395833,2047,1964,1959
2.416667,2047,1964,1959
2.437500,2047,1963,1958
2.458333,2047,1967,1961
2.479167,2047,1956,1966
2.500000,2047,1960,1987
2.520833,2047,1964,1988
2.541667,2047,1963,1991
2.562500,2047,1963,1987
2.583333,2047,1962,1987
2.604167,2047,1960,1987
2.625000,2047,1955,1965
2.645833,2047,1953,1964
2.666667,2047,1954,1963
2.687500,2047,1955,1965
2.708333,2047,1958,1967
2.729167,2047,1957,1967
2.750000,2047,1957,1967
2.770833,2047,1961,1967
2.791667,2047,1961,1967
2.812500,2047,1965,1984
2.833333,2047,1963,1984
2.854167,2047,1960,1984
2.875000,2047,1959,1985
2.895833,2047,1956,1985
2.916667,2047,1959,1987
2.937500,2047,1959,1985
2.958333,2047,1962,1985
2.979167,2047,1962,1985
3.000000,2047,1963,1966
3.020833,2047,1965,1985
3.041667,2047,1984,1989
3.062500,2047,1987,1993
3.083333,2047,1990,1995
3.104167,2047,1985,1990
3.125000,2047,1985,1989
3.145833,2047,1988,1992
3.166667,2047,1987,1989
3.187500,2047,1990,1993
3.208333,2047,1990,1995
3.229167,2047,1992,1997
3.250000,2047,1991,1995
3.270833,2047,1988,1990
3.291667,2047,1967,1988
3.312500,2047,1985,1988
3.333333,2047,1965,1987
3.354167,2047,1963,1967
3.375000,2047,1960,1985
3.395833,2047,1959,1967
3.416667,2047,1961,1985
3.437500,2047,1963,1988
3.458333,2047,1962,1986
3.479167,2047,1960,1984
3.500000,2047,1962,1967
3.520833,2047,1959,1964
3.541667,2047,1961,1963
3.562500,2047,1957,1963
3.583333,2047,1956,1963
3.604167,2047,1959,1967
3.625000,2047,1957,1966
3.645833,2047,1955,1965
3.666667,2047,1955,1965
3.687500,2047,1954,1964
3.708333,2047,1955,1965
3.729167,2047,1959,1967
3.750000,2047,1959,1967
3.770833,2047,1959,1966
3.791667,2047,1961,1967
3.812500,2047,1963,1985
3.833333,2047,1965,1988
3.854167,2047,1964,1987
3.875000,2047,1962,1987
3.895833,2047,1964,1988
3.916667,2047,1964,1989
3.937500,2047,1965,1987
3.958333,2047,1964,1987
3.979167,2047,1967,1990
4.000000,2047,1967,1991
4.020833,2047,1985,1991
4.041667,2047,1964,1987
4.062500,2047,1962,1985
4.083333,2047,1961,1987
4.104167,2047,1960,1985
4.125000,2047,1959,1967
4.145833,2047,1961,1967
4.166667,2047,1960,1967
4.187500,2047,1963,1987
4.208333,2047,1960,1985
4.229167,2047,1959,1984
4.250000,2047,1958,1988
4.270833,2047,1956,1985
4.291667,2047,1959,1987
4.312500,2047,1962,1989
4.333333,2047,1963,1989
4.354167,2047,1985,1992
4.375000,2047,1987,1991
4.395833,2047,1965,1989
4.416667,2047,1963,1988
4.437500,2047,1958,1987
4.458333,2047,1955,1967
4.479167,2047,1955,1967
4.500000,2047,1954,1966
4.520833,2047,1959,1965
4.541667,2047,1963,1986
4.562500,2047,1963,1984
4.583333,2047,1963,1987
4.604167,2047,1961,1988
4.625000,2047,1957,1986
4.645833,2047,1958,1988
4.666667,2047,1956,1967
4.687500,2047,1958,1967
4.708333,2047,1964,1988
4.729167,2047,1964,1989
4.750000,2047,1965,1988
4.770833,2047,1963,1987
4.791667,2047,1959,1986
4.812500,2047,1958,1988
4.833333,2047,1959,1989
4.854167,2047,1959,1986
4.875000,2047,1963,1987
4.895833,2047,1963,1987
4.916667,2047,1964,1990
4.937500,2047,1964,1992
4.958333,2047,1962,1990
4.979167,2047,1963,1989
5.000000,2047,1965,1990
5.020833,2047,1965,1988
5.041667,2047,1966,1990
5.062500,2047,1965,1986
5.083333,2047,1964,1989
5.104167,2047,1964,1990
5.125000,2047,1957,1987
5.145833,2047,1955,1967
5.166667,2047,1955,1967
5.187500,2047,1955,1966
5.208333,2047,1956,1967
5.229167,2047,1953,1965
5.250000,2047,1953,1965
5.270833,2047,1967,1963
5.291667,2047,1966,1964
5.312500,2047,1963,1961
5.333333,2047,1959,1957
5.354167,2047,1959,1956
5.375000,2047,1958,1955
5.395833,2047,1961,1957
5.416667,2047,1963,1959
5.437500,2047,1963,1960
5.458333,2047,1954,1962
5.479167,2047,1956,1967
5.500000,2047,1956,1966
5.520833,2047,1957,1967
5.541667,2047,1956,1965
5.562500,2047,1959,1965
5.583333,2047,1959,1967
5.604167,2047,1956,1965
5.625000,2047,1955,1966
5.645833,2047,1967,1961
5.666667,2047,1963,1958
5.687500,2047,1961,1959
5.708333,2047,1960,1959
5.729167,2047,1963,1959
5.750000,2047,1952,1963
5.770833,2047,1953,1963
5.791667,2047,1956,1965
5.812500,2047,1954,1964
5.833333,2047,1956,1966
5.854167,2047,1955,1966
5.875000,2047,1957,1965
5.895833,2047,1955,1964
5.916667,2047,1952,1963
5.937500,2047,1967,1962
5.958333,2047,1965,1960
5.979167,2047,1964,1959
6.000000,2047,1966,1961
6.020833,2047,1967,1961
6.041667,2047,1954,1964
6.062500,2047,1953,1963
6.083333,2047,1956,1963
6.104167,2047,1954,1963
6.125000,2047,1956,1965
6.145833,2047,1954,1966
6.166667,2047,1955,1966
6.187500,2047,1955,1967
6.208333,2047,1958,1985
6.229167,2047,1956,1985
6.250000,2047,1958,1985
6.270833,2047,1956,1967
6.291667,2047,1957,1967
6.312500,2047,1954,1965
6.333333,2047,1952,1964
6.354167,2047,1953,1964
6.375000,2047,1955,1965
6.395833,2047,1959,1966
6.416667,2047,1963,1986
6.437500,2047,1965,1987
6.458333,2047,1966,1990
6.479167,2047,1964,1989
6.500000,2047,1963,1989
6.520833,2047,1962,1989
6.541667,2047,1963,1989
6.562500,2047,1967,1991
6.583333,2047,1986,1991
6.604167,2047,1989,1993
6.625000,2047,1987,1995
6.645833,2047,1986,1997
6.666667,2047,1966,1996
6.687500,2047,1966,1997
6.708333,2047,1967,1994
6.729167,2047,1986,1997
6.750000,2047,1989,1995
6.770833,2047,1993,1998
6.791667,2047,1995,1998
6.812500,2047,1995,1984
6.833333,2047,1996,1987
6.854167,2047,1994,1989
6.875000,2047,1995,1988
6.895833,2047,1997,1989
6.916667,2047,1997,1988
6.937500,2047,1999,1987
6.958333,2047,1998,1985
6.979167,2047,1996,1998
7.000000,2047,1991,1994
7.020833,2047,1990,1995
7.041667,2047,1985,1993
7.062500,2047,1985,1993
7.083333,2047,1987,1993
7.104167,2047,1990,1995
7.125000,2047,1991,1996
7.145833,2047,1994,1996
7.166667,2047,1994,1997
7.187500,2047,1990,1996
7.208333,2047,1991,1997
7.229167,2047,1988,1998
7.250000,2047,1986,1995
7.270833,2047,1988,1995
7.291667,2047,1987,1991
7.312500,2047,1985,1991
7.333333,2047,1987,1991
7.354167,2047,1989,1993
7.375000,2047,1988,1993
7.395833,2047,1990,1995
7.416667,2047,1990,1997
7.437500,2047,1989,1995
7.458333,2047,1988,1997
7.479167,2047,1988,1997
7.500000,2047,1984,1993
7.520833,2047,1965,1989
7.541667,2047,1965,1989
7.562500,2047,1963,1987
7.583333,2047,1961,1967
7.604167,2047,1960,1967
7.625000,2047,1962,1986
7.645833,2047,1962,1986
7.666667,2047,1965,1989
7.687500,2767,1967,1989
7.708333,3385,1967,1987
7.729167,3813,1967,1988
7.750000,3988,1964,1987
7.770833,3888,1959,1966
7.791667,3525,1965,1964
7.812500,2952,2031,1988
7.833333,2250,2246,2090
7.854167,1519,2634,2248
7.875000,863,2980,2499
7.895833,375,2979,2658
7.916667,126,2858,2604
7.937500,150,2059,2184
7.958333,444,942,1575
7.979167,966,942,961
8.000000,2047,942,943
8.020834,2047,942,943
8.041667,2047,942,961
8.062500,2047,942,961
8.083334,2047,1772,1355
8.104167,2047,2980,2500
8.125000,2047,2979,2991
8.145834,2047,2980,2991
8.166667,2047,2980,2991
8.187500,2047,2979,2990
8.208334,2047,2979,2990
8.229167,2047,2671,2991
8.250000,2047,942,1673
8.270834,2047,942,960
8.291667,2047,942,943
8.312500,2047,942,943
8.333334,2047,942,960
8.354167,2047,942,961
8.375000,2047,1732,1194
8.395834,2047,2980,2123
8.416667,2047,2979,2946
8.437500,2047,2980,2991
8.458334,2047,2979,2991
8.479167,2047,2980,2991
8.500000,2047,2980,2990
8.520834,2047,2980,2990
8.541667,2047,2980,2991
8.562500,2047,2979,2990
8.583334,2047,2443,2472
8.604167,2047,942,1412
8.625000,2047,942,943
8.645834,2047,942,960
8.666667,2047,942,961
8.687500,2047,942,960
8.708334,2047,1187,943
8.729167,2047,2081,1452
8.750000,2047,2636,2023
8.770834,2047,2766,2382
8.791667,2047,2819,2634
8.812500,2047,2980,2862
8.833334,2047,2980,2991
8.854167,2047,2980,2991
8.875000,2047,2979,2990
8.895834,2047,2980,2991
8.916667,2047,2958,2888
8.937500,2047,1766,2147
8.958334,2047,942,1231
8.979167,2047,942,961
9.000000,2047,942,960
9.020834,2047,942,943
9.041667,2047,942,961
9.062500,2047,1483,1198
9.083334,2047,2092,1701
9.104167,2047,2414,2121
9.125000,2047,2595,2434
9.145834,2047,2849,2656
9.166667,2047,2979,2859
9.187500,2047,2980,2990
9.208334,2047,2980,2991
9.229167,2047,2980,2990
9.250000,2047,2979,2817
9.270834,2047,2442,2374
9.291667,2047,1391,1766
9.312500,2047,942,1250
9.333334,2047,942,960
9.354167,2047,943,960
9.375000,2047,943,961
9.395834,2047,1158,1185
9.416667,2047,1605,1515
9.437500,2047,2031,1839
9.458334,2047,2350,2149
9.479167,2047,2628,2371
9.500000,2047,2918,2537
9.520834,2047,2980,2689
9.541667,2047,2980,2767
9.562500,2047,2980,2760
9.583334,2047,2977,2632
9.604167,2047,2631,2402
9.625000,2047,2055,2061
9.645834,2047,1417,1735
9.666667,2047,942,1411
9.687500,2047,942,1191
9.708334,2047,942,1127
9.729167,2047,993,1184
9.750000,2047,1281,1386
9.770834,2047,1666,1642
9.791667,2047,2117,1930
9.812500,2047,2474,2191
9.833334,2047,2762,2403
9.854167,2047,2944,2565
9.875000,2047,2980,2600
9.895834,2047,2958,2574
9.916667,2047,2829,2502
9.937500,2047,2571,2350
9.958334,2047,2283,2182
9.979167,2047,1922,1985
10.000000,2047,1573,1763
10.020834,2047,1287,1551
10.041667,2047,1123,1415
10.062500,2047,1068,1347
10.083334,2047,1191,1386
10.104167,2047,1415,1518
10.125000,2047,1733,1743
10.145834,2047,2113,1957
10.166667,2047,2403,2182
10.187500,2047,2637,2351
10.208334,2047,2727,2434
10.229167,2047,2727,2444
10.250000,2047,2665,2401
10.270834,2047,2505,2310
10.291667,2047,2341,2187
10.312500,2047,2126,2082
10.333334,2047,1859,1935
10.354167,2047,1643,1793
10.375000,2047,1450,1642
10.395834,2047,1327,1543
10.416667,2047,1352,1539
10.437500,2047,1483,1602
10.458334,2047,1707,1733
10.479167,2047,1955,1894
10.500000,2047,2222,2063
10.520834,2047,2412,2176
10.541667,2047,2478,2221
10.562500,2047,2469,2254
10.583334,2047,2406,2221
10.604167,2047,2319,2209
10.625000,2047,2249,2181
10.645834,2047,2148,2151
10.666667,2047,2048,2091
10.687500,2047,1927,1991
10.708334,2047,1773,1893
10.729167,2047,1641,1764
10.750000,2047,1545,1667
10.770834,2047,1539,1611
10.791667,2047,1610,1665
10.812500,2047,1761,1762
10.833334,2047,1952,1888
10.854167,2047,2156,2030
10.875000,2047,2282,2118
10.895834,2047,2371,2180
10.916667,2047,2375,2186
10.937500,2047,2311,2152
10.958334,2047,2250,2127
10.979167,2047,2147,2118
11.000000,2047,2054,2084
11.020834,2047,1954,2020
11.041667,2047,1858,1964
11.062500,2047,1770,1871
11.083334,2047,1711,1803
11.104167,2047,1676,1773
11.125000,2047,1729,1772
11.145834,2047,1799,1802
11.166667,2047,1922,1866
11.187500,2047,2027,1953
11.208334,2047,2119,1989
11.229167,2047,2158,2016
11.250000,2047,2147,2024
11.270834,2047,2151,2027
11.291667,2047,2118,2052
11.312500,2047,2123,2059
11.333334,2047,2094,2093
11.354167,2047,2083,2080
11.375000,2047,1990,2063
11.395834,2047,1925,1985
11.416667,2047,1836,1924
11.437500,2047,1768,1831
11.458334,2047,1741,1805
11.479167,2047,1774,1807
11.500000,2047,1836,1831
11.520834,2047,1957,1892
11.541667,2047,2052,1959
11.562500,2047,2127,2019
11.583334,2047,2147,2026
11.604167,2047,2115,2029
11.625000,2047,2085,2027
11.645834,2047,2051,2022
11.666667,2047,2023,2021
11.687500,2047,1985,2030
11.708334,2047,1959,1998
11.729167,2047,1926,1985
11.750000,2047,1903,1935
11.770834,2047,1865,1921
11.791667,2047,1831,1902
11.812500,2047,1859,1902
11.833334,2047,1897,1899
11.854167,2047,1953,1927
11.875000,2047,1994,1967
11.895834,2047,2055,1984
11.916667,2047,2089,1996
11.937500,2047,2086,1985
11.958334,2047,2054,1991
11.979167,2047,2050,1999
12.000000,2047,1993,2019
12.020834,2047,1985,1998
12.041667,2047,1961,1998
12.062500,2047,1926,1955
12.083334,2047,1893,1927
12.104167,2047,1863,1903
12.125000,2047,1838,1896
12.145834,2047,1867,1903
12.166667,2047,1889,1923
12.187500,2047,1957,1964
12.208334,2047,1997,1985
12.229167,2047,2059,1984
12.250000,2047,2095,1988
12.270834,2047,2089,1987
12.291667,2047,2049,1998
12.312500,2047,1998,1999
12.333334,2047,1961,1993
12.354167,2047,1931,1966
12.375000,2047,1923,1967
12.395834,2047,1891,1935
12.416667,2047,1893,1935
12.437500,2047,1871,1927
12.458334,2047,1889,1932
12.479167,2047,1902,1926
12.500000,2047,1930,1962
12.520834,2047,1960,1966
12.541667,2047,1998,1997
12.562500,2047,2017,1992
12.583334,2047,2052,1992
12.604167,2047,2055,1990
12.625000,2047,2059,1989
12.645834,2047,2017,1998
12.666667,2047,1963,1986
12.687500,2047,1930,1952
12.708334,2047,1923,1954
12.729167,2047,1892,1923
12.750000,2047,1902,1931
12.770834,2047,1892,1934
12.791667,2047,1922,1932
12.812500,2047,1924,1952
12.833334,2047,1958,1986
12.854167,2047,1959,1991
12.875000,2047,1994,1999
12.895834,2047,1999,2019
12.916667,2047,2017,2019
12.937500,2047,2028,1999
12.958334,2047,2051,1996
12.979167,2047,2058,1992
13.000000,2047,2018,1999
13.020834,2047,1991,1987
13.041667,2047,1959,1954
13.062500,2047,1929,1952
13.083334,2047,1894,1926
13.104167,2047,1900,1935
13.125000,2047,1893,1929
13.145834,2047,1925,1960
13.166667,2047,1955,1966
13.187500,2047,1966,1988
13.208334,2047,1992,2021
13.229167,2047,2025,2025
13.250000,2047,2023,2029
13.270834,2047,2025,2026
13.291667,2047,2021,2017
13.312500,2047,2024,1992
13.333334,2047,1994,1998
13.354167,2047,1988,1984
13.375000,2047,1965,1955
13.395834,2047,1928,1961
13.416667,2047,1927,1953
13.437500,2047,1921,1932
13.458334,2047,1928,1957
13.479167,2047,1933,1957
13.500000,2047,1955,1994
13.520834,2047,1994,1993
13.541667,2047,1991,2017
13.562500,2047,2017,2022
13.583334,2047,2021,2022
13.604167,2047,2026,2024
13.625000,2047,2026,2018
13.645834,2047,2023,1995
13.666667,2047,1994,1995
13.687500,2047,1996,1967
13.708334,2047,1954,1967
13.729167,2047,1932,1958
13.750000,2047,1925,1931
13.770834,2047,1898,1926
13.791667,2047,1920,1952
13.812500,2047,1922,1965
13.833334,2047,1964,1967
13.854167,2047,1984,1999
13.875000,2047,1998,1996
13.895834,2047,1988,2017
13.916667,2047,1989,2018
13.937500,2047,1998,1994
13.958334,2047,1996,1989
13.979167,2047,1993,1994
14.000000,2047,1995,1993
14.020834,2047,1991,1985
14.041667,2047,1967,1962
14.062500,2047,1965,1967
14.083334,2047,1931,1960
14.104167,2047,1932,1933
14.125000,2047,1925,1934
14.145834,2047,1927,1952
14.166667,2047,1923,1965
14.187500,2047,1935,1959
14.208334,2047,1953,1989
14.229167,2047,1987,1987
14.250000,2047,1999,1993
14.270834,2047,1993,2019
14.291667,2047,1995,2017
14.312500,2047,1986,1992
14.333334,2047,1989,1991
14.354167,2047,1956,1957
14.375000,2047,1952,1956
14.395834,2047,1933,1930
14.416667,2047,1903,1924
14.437500,2047,1899,1922
14.458334,2047,1903,1926
14.479167,2047,1928,1952
14.500000,2047,1922,1960
14.520834,2047,1953,1956
14.541667,2047,1961,1964
14.562500,2047,1953,1985
14.583334,2047,1957,1991
14.604167,2047,1963,1997
14.625000,2047,1967,1999
14.645834,2047,1989,1997
14.666667,2047,1985,1987
14.687500,2047,1965,1964
14.708334,2047,1967,1954
14.729167,2047,1935,1960
14.750000,2047,1933,1932
14.770834,2047,1921,1926
14.791667,2047,1897,1923
14.812500,2047,1901,1928
14.833334,2047,1928,1952
14.854167,2047,1926,1962
14.875000,2047,1957,1959
14.895834,2047,1958,1988
14.916667,2047,1986,1997
14.937500,2047,1995,1990
14.958334,2047,1995,1988
14.979167,2047,1992,1984
15.000000,2047,1987,1995
15.020834,2047,1961,1986
15.041667,2047,1952,1961
15.062500,2047,1935,1963
15.083334,2047,1922,1955
15.104167,2047,1932,1932
15.125000,2047,1928,1931
15.145834,2047,1930,1932
15.166667,2047,1934,1952
15.187500,2047,1924,1961
15.208334,2047,1934,1967
15.229167,2047,1960,1962
15.250000,2047,1957,1988
15.270834,2047,1965,1993
15.291667,2047,1990,1986
15.312500,2047,1984,1992
15.333334,2047,1987,1991
15.354167,2047,1986,1989
15.375000,2047,1994,1996
15.395834,2047,1965,1988
15.416667,2047,1967,1961
15.437500,2047,1954,1967
15.458334,2047,1930,1962
15.479167,2047,1925,1958
15.500000,2047,1929,1963
15.520834,2047,1935,1966
15.541667,2047,1958,1954
15.562500,2047,1967,1959
15.583334,2047,1956,1964
15.604167,2047,1965,1989
15.625000,2047,1986,1995
15.645834,2047,1994,1987
15.666667,2047,1999,1990
15.687500,2047,1996,1990
15.708334,2047,1995,1989
15.729167,2047,1986,1997
15.750000,2047,1959,1986
15.770834,2047,1966,1961
15.791667,2047,1957,1967
15.812500,2047,1952,1965
15.833334,2047,1934,1963
15.854167,2047,1954,1953
15.875000,2047,1962,1957
15.895834,2047,1955,1964
15.916667,2047,1964,1989
15.937500,2047,1987,1994
15.958334,2047,1992,1985
15.979167,2047,1995,1988
16.000000,2047,1998,1989
16.020834,2047,1997,1990
16.041668,2047,1995,1989
16.062500,2047,1991,1984
16.083334,2047,1967,1993
16.104168,2047,1960,1987
16.125000,2047,1952,1964
16.145834,2047,1963,1959
16.166668,2047,1958,1955
16.187500,2047,1961,1956
16.208334,2047,1965,1960
16.229168,2047,1956,1965
16.250000,2047,1963,1988
16.270834,2047,1967,1993
16.291668,2047,1988,1999
16.312500,2047,1992,1988
16.333334,2047,1994,1989
16.354168,2047,1993,1990
16.375000,2047,1996,1991
16.395834,2047,1997,1991
16.416668,2047,1996,1988
16.437500,2047,1994,1985
16.458334,2047,1988,1994
16.479168,2047,1964,1988
16.500000,2047,1959,1986
16.520834,2047,1956,1967
16.541668,2047,1959,1986
16.562500,2047,1965,1991
16.583334,2047,1986,1994
16.604168,2047,1991,1985
16.625000,2047,1994,1987
16.645834,2047,1995,1988
16.666668,2047,1995,1987
16.687500,2047,1995,1988
16.708334,2047,1995,1989
16.729168,2047,1996,1988
16.750000,2047,1999,1989
16.770834,2047,1997,1985
16.791668,2047,1997,1984
16.812500,2047,1993,1999
16.833334,2047,1987,1995
16.854168,2047,1966,1992
16.875000,2047,1960,1989
16.895834,2047,1957,1985
16.916668,2047,1961,1989
16.937500,2047,1963,1990
16.958334,2047,1984,1993
16.979168,2047,1991,1999
17.000000,2047,1994,1985
17.020834,2047,1994,1989
17.041668,2047,1994,1988
17.062500,2047,1993,1987
17.083334,2047,1992,1984
17.104168,2047,1991,1996
17.125000,2047,1990,1995
17.145834,2047,1986,1994
17.166668,2047,1965,1994
17.187500,2047,1960,1990
17.208334,2047,1958,1991
17.229168,2047,1960,1989
17.250000,2047,1966,1991
17.270834,2047,1988,1994
17.291668,2047,1991,1994
17.312500,2047,1995,1996
17.333334,2047,1992,1996
17.354168,2047,1989,1996
17.375000,2047,1984,1992
17.395834,2047,1966,1991
17.416668,2047,1962,1990
17.437500,2047,1963,1987
17.458334,2047,1961,1985
17.479168,2047,1958,1966
17.500000,2047,1954,1963
17.520834,2047,1964,1960
17.541668,2047,1961,1960
17.562500,2047,1964,1963
17.583334,2047,1966,1963
17.604168,2047,1957,1967
17.625000,2047,1960,1985
17.645834,2047,1966,1990
17.666668,2047,1963,1987
17.687500,2047,1965,1988
17.708334,2047,1961,1986
17.729168,2047,1957,1985
17.750000,2047,1955,1966
17.770834,2047,1956,1967
17.791668,2047,1958,1966
17.812500,2047,1959,1984
17.833334,2047,1961,1984
17.854168,2047,1959,1967
17.875000,2047,1959,1966
17.895834,2047,1954,1963
17.916668,2047,1953,1966
17.937500,2047,1967,1963
17.958334,2047,1966,1961
17.979168,2047,1967,1963
18.000000,2047,1967,1961
18.020834,2047,1965,1962
18.041668,2047,1959,1958
18.062500,2047,1957,1958
18.083334,2047,1954,1955
18.104168,2047,1953,1967
18.125000,2047,1955,1955
18.145834,2047,1956,1952
18.166668,2047,1960,1956
18.187500,2047,1960,1955
18.208334,2047,1963,1957
18.229168,2047,1963,1958
18.250000,2047,1962,1958
18.270834,2047,1964,1961
18.291668,2047,1960,1958
18.312500,2047,1959,1957
18.333334,2047,1956,1955
18.354168,2047,1954,1952
18.375000,2047,1954,1967
18.395834,2047,1934,1962
18.416668,2047,1952,1962
18.437500,2047,1952,1964
18.458334,2047,1957,1952
18.479168,2047,1960,1955
18.500000,2047,1963,1958
18.520834,2047,1964,1962
18.541668,2047,1963,1961
18.562500,2047,1963,1963
18.583334,2047,1962,1962
18.604168,2047,1962,1960
18.625000,2047,1962,1960
18.645834,2047,1961,1957
18.666668,2047,1961,1956
18.687500,2047,1959,1955
18.708334,2047,1957,1953
18.729168,2047,1953,1953
18.750000,2047,1952,1952
18.770834,2047,1933,1966
18.791668,2047,1932,1952
18.812500,2047,1935,1953
18.833334,2047,1956,1958
18.854168,2047,1959,1959
18.875000,2047,1964,1963
18.895834,2047,1965,1961
18.916668,2047,1966,1962
18.937500,2047,1962,1959
18.958334,2047,1961,1963
18.979168,2047,1963,1959
19.000000,2047,1965,1960
19.020834,2047,1964,1959
19.041668,2047,1964,1962
19.062500,2047,1964,1961
19.083334,2047,1965,1963
19.104168,2047,1962,1960
19.125000,2047,1961,1956
19.145834,2047,1966,1964
19.166668,2047,1952,1967
19.187500,2047,1967,1965
19.208334,2047,1952,1965
19.229168,2047,1953,1965
19.250000,2047,1955,1966
19.270834,2047,1955,1966
19.291668,2047,1962,1984
19.312500,2047,1965,1991
19.333334,2047,1964,1990
19.354168,2047,1963,1991
19.375000,2047,1962,1991
19.395834,2047,1963,1993
19.416668,2047,1961,1991
19.437500,2047,1960,1992
19.458334,2047,1963,1989
19.479168,2047,1965,1991
19.500000,2047,1967,1990
19.520834,2047,1987,1992
19.541668,2047,1988,1994
19.562500,2047,1990,1997
19.583334,2047,1993,1996
19.604168,2047,1991,1996
19.625000,2047,1989,1998
19.645834,2047,1992,1985
19.666668,2047,1987,1998
19.687500,2047,1985,1996
19.708334,2047,1967,1994
19.729168,2047,1961,1990
19.750000,2047,1961,1991
19.770834,2047,1967,1995
19.791668,2047,1985,1992
19.812500,2047,1992,1994
19.833334,2047,1995,1995
19.854168,2047,1998,1999
19.875000,2047,1995,1999
19.895834,2047,1992,1999
19.916668,2047,1990,1999
19.937500,2047,1987,1996
19.958334,2047,1967,1994
19.979168,2047,1966,1993
20.000000,2047,1965,1991
20.020834,2047,1967,1993
20.041668,2047,1967,1990
20.062500,2047,1984,1987
20.083334,2047,1984,1991
20.104168,2047,1987,1992
20.125000,2047,1987,1991
20.145834,2047,1989,1993
20.166668,2047,1987,1992
20.187500,2047,1985,1990
20.208334,2047,1985,1992
20.229168,2047,1967,1988
20.250000,2047,1964,1989
20.270834,2047,1967,1991
20.291668,2047,1965,1992
20.312500,2047,1965,1990
20.333334,2047,1965,1991
20.354168,2047,1964,1990
20.375000,2047,1963,1988
20.395834,2047,1962,1987
20.416668,2047,1961,1986
20.437500,2047,1957,1984
20.458334,2047,1957,1967
20.479168,2047,1957,1967
20.500000,2047,1959,1984
20.520834,2047,1963,1986
20.541668,2047,1963,1988
20.562500,2047,1963,1986
20.583334,2047,1960,1967
20.604168,2047,1954,1964
20.625000,2047,1963,1959
20.645834,2047,1957,1957
20.666668,2047,1954,1953
20.687500,2047,1952,1952
20.708334,2047,1934,1965
20.729168,2047,1954,1952
20.750000,2047,1954,1955
20.770834,2047,1956,1955
20.791668,2047,1960,1957
20.812500,2047,1960,1956
20.833334,2047,1960,1955
20.854168,2047,1960,1953
20.875000,2047,1957,1953
20.895834,2047,1955,1966
20.916668,2047,1953,1965
20.937500,2047,1953,1952
20.958334,2047,1954,1955
20.979168,2047,1959,1957
21.000000,2047,1963,1960
21.020834,2047,1953,1962
21.041668,2047,1957,1965
21.062500,2047,1957,1967
21.083334,2047,1955,1985
21.104168,2047,1967,1967
21.125000,2047,1965,1964
21.145834,2047,1964,1964
21.166668,2047,1961,1960
21.187500,2047,1963,1959
21.208334,2047,1963,1958
21.229168,2047,1964,1959
21.250000,2047,1966,1960
21.270834,2047,1963,1958
21.291668,2047,1965,1962
21.312500,2047,1964,1959
21.333334,2047,1964,1960
21.354168,2047,1961,1958
21.375000,2047,1962,1958
21.395834,2047,1963,1960
21.416668,2047,1962,1961
21.437500,2047,1963,1963
21.458334,2047,1963,1964
21.479168,2047,1962,1961
21.500000,2047,1966,1963
21.520834,2047,1966,1960
21.541668,2047,1965,1959
21.562500,2047,1967,1962
21.583334,2047,1952,1964
21.604168,2047,1952,1966
21.625000,2047,1953,1967
21.645834,2047,1953,1967
21.666668,2047,1954,1967
21.687500,2047,1952,1967
21.708334,2047,1952,1963
21.729168,2047,1952,1962
21.750000,2047,1966,1960
21.770834,2047,1966,1961
21.791668,2047,1965,1962
21.812500,2047,1964,1962
21.833334,2047,1965,1959
21.854168,2047,1967,1961
21.875000,2047,1965,1961
21.895834,2047,1966,1962
21.916668,2047,1966,1962
21.937500,2047,1952,1965
21.958334,2047,1956,1984
21.979168,2047,1957,1985
22.000000,2047,1960,1987
22.020834,2047,1963,1989
22.041668,2047,1964,1991
22.062500,2047,1964,1991
22.083334,2047,1963,1990
22.104168,2047,1965,1993
22.125000,2047,1964,1989
22.145834,2047,1967,1991
22.166668,2047,1986,1993
22.187500,2047,1988,1993
22.208334,2047,1987,1994
22.229168,2047,1985,1993
22.250000,2047,1986,1996
22.270834,2047,1965,1992
22.291668,2047,1967,1994
22.312500,2047,1967,1992
22.333334,2047,1967,1991
22.354168,2047,1967,1992
22.375000,2047,1987,1993
22.395834,2047,1967,1991
22.416668,2047,1985,1991
22.437500,2047,1967,1990
22.458334,2047,1984,1992
22.479168,2047,1966,1992
22.500000,2047,1967,1993
22.520834,2047,1967,1991
22.541668,2047,1986,1991
22.562500,2047,1987,1992
22.583334,2047,1991,1995
22.604168,2047,1997,1999
22.625000,2047,1996,1999
22.645834,2047,1999,1987
22.666668,2047,1984,1990
22.687500,2047,1997,1988
22.708334,2047,1998,1989
22.729168,2047,1999,1990
22.750000,2047,1996,1984
22.770834,2047,1997,1987
22.791668,2047,1995,1987
22.812500,2047,1997,1986
22.833334,2047,1998,1988
22.854168,2047,1997,1987
22.875000,2047,1984,1990
22.895834,2047,1997,1987
22.916668,2047,1995,1986
22.937500,2047,1988,1995
22.958334,2047,1985,1991
22.979168,2047,1960,1986
23.000000,2047,1954,1966
23.020834,2767,1953,1966
23.041668,3385,1953,1964
23.062500,3813,1953,1963
23.083334,3988,1955,1965
23.104168,3888,1960,1966
23.125000,3525,1988,1985
23.145834,2952,2061,1995
23.166668,2250,2287,2085
23.187500,1519,2669,2286
23.208334,863,2980,2536
23.229168,375,2979,2696
23.250000,126,2851,2601
23.270834,150,2023,2190
23.291668,444,943,1509
23.312500,966,942,960
23.333334,2047,943,960
23.354168,2047,942,960
23.375000,2047,943,961
23.395834,2047,943,961
23.416668,2047,1799,1409
23.437500,2047,2980,2470
23.458334,2047,2980,2991
23.479168,2047,2980,2991
23.500000,2047,2979,2990
23.520834,2047,2981,2991
23.541668,2047,2980,2990
23.562500,2047,2637,2990
23.583334,2047,943,1702
23.604168,2047,943,961
23.625000,2047,942,960
23.645834,2047,942,943
23.666668,2047,942,960
23.687500,2047,942,961
23.708334,2047,1739,1164
23.729168,2047,2980,2178
23.750000,2047,2980,2945
23.770834,2047,2980,2991
23.791668,2047,2979,2991
23.812500,2047,2980,2991
23.833334,2047,2980,2990
23.854168,2047,2980,2990
23.875000,2047,2981,2990
23.895834,2047,2980,2991
23.916668,2047,2412,2496
23.937500,2047,942,1454
23.958334,2047,942,943
23.979168,2047,943,961
24.000000,2047,942,960
24.020834,2047,942,960
24.041668,2047,1196,960
24.062500,2047,2112,1479
24.083334,2047,2667,2019
24.104168,2047,2787,2415
24.125000,2047,2822,2632
24.145834,2047,2980,2859
24.166668,2047,2980,2991
24.187500,2047,2981,2991
24.208334,2047,2981,2990
24.229168,2047,2981,2991
24.250000,2047,2951,2921
24.270834,2047,1767,2122
24.291668,2047,942,1187
24.312500,2047,943,960
24.333334,2047,942,961
24.354168,2047,943,943
24.375000,2047,943,961
24.395834,2047,1473,1223
24.416668,2047,2083,1708
24.437500,2047,2436,2124
24.458334,2047,2606,2434
24.479168,2047,2862,2639
24.500000,2047,2980,2856
24.520834,2047,2980,2991
24.541668,2047,2980,2990
24.562500,2047,2980,2990
24.583334,2047,2980,2856
24.604168,2047,2445,2379
24.625000,2047,1387,1792
24.645834,2047,943,1252
24.666668,2047,943,960
24.687500,2047,943,960
24.708334,2047,943,960
24.729168,2047,1164,1191
24.750000,2047,1601,1517
24.770834,2047,2016,1867
24.791668,2047,2376,2144
24.812500,2047,2660,2368
24.833334,2047,2952,2570
24.854168,2047,2980,2698
24.875000,2047,2981,2788
24.895834,2047,2980,2794
24.916668,2047,2979,2657
24.937500,2047,2639,2405
24.958334,2047,2060,2082
24.979168,2047,1417,1707
25.000000,2047,943,1415
25.020834,2047,943,1189
25.041668,2047,943,1127
25.062500,2047,996,1195
25.083334,2047,1287,1379
25.104168,2047,1675,1646
25.125000,2047,2125,1927
25.145834,2047,2504,2212
25.166668,2047,2793,2435
25.187500,2047,2955,2568
25.208334,2047,2980,2607
25.229168,2047,2956,2575
25.250000,2047,2821,2501
25.270834,2047,2571,2345
25.291668,2047,2281,2190
25.312500,2047,1924,1965
25.333334,2047,1575,1772
25.354168,2047,1291,1575
25.375000,2047,1129,1415
25.395834,2047,1067,1347
25.416668,2047,1191,1383
25.437500,2047,1411,1515
25.458334,2047,1742,1734
25.479168,2047,2091,1964
25.500000,2047,2403,2190
25.520834,2047,2639,2347
25.541668,2047,2729,2434
25.562500,2047,2729,2447
25.583334,2047,2659,2401
25.604168,2047,2498,2309
25.625000,2047,2319,2187
25.645834,2047,2125,2059
25.666668,2047,1858,1923
25.687500,2047,1643,1796
25.708334,2047,1452,1639
25.729168,2047,1325,1546
25.750000,2047,1350,1539
25.770834,2047,1480,1600
25.791668,2047,1701,1729
25.812500,2047,1961,1898
25.833334,2047,2222,2051
25.854168,2047,2379,2154
25.875000,2047,2476,2213
25.895834,2047,2472,2243
25.916668,2047,2412,2210
25.937500,2047,2310,2181
25.958334,2047,2243,2155
25.979168,2047,2159,2125
26.000000,2047,2049,2091
26.020834,2047,1928,1988
26.041668,2047,1775,1893
26.062500,2047,1643,1773
26.083334,2047,1549,1671
26.104168,2047,1543,1636
26.125000,2047,1613,1669
26.145834,2047,1763,1771
26.166668,2047,1956,1902
26.187500,2047,2145,2019
26.208334,2047,2282,2127
26.229168,2047,2368,2158
26.250000,2047,2373,2185
26.270834,2047,2311,2155
26.291668,2047,2252,2151
26.312500,2047,2150,2126
26.333334,2047,2081,2080
26.354168,2047,1967,2027
26.375000,2047,1871,1961
26.395834,2047,1766,1896
26.416668,2047,1703,1805
26.437500,2047,1696,1774
26.458334,2047,1730,1769
26.479168,2047,1797,1798
26.500000,2047,1903,1863
26.520834,2047,2026,1954
26.541668,2047,2127,1992
26.562500,2047,2153,2025
26.583334,2047,2157,2031
26.604168,2047,2144,2050
26.625000,2047,2145,2063
26.645834,2047,2119,2084
26.666668,2047,2119,2085
26.687500,2047,2093,2089
26.708334,2047,2024,2081
26.729168,2047,1928,1998
26.750000,2047,1836,1933
26.770834,2047,1767,1861
26.791668,2047,1737,1798
26.812500,2047,1764,1796
26.833334,2047,1838,1833
26.854168,2047,1957,1897
26.875000,2047,2053,1955
26.895834,2047,2115,2017
26.916668,2047,2153,2024
26.937500,2047,2125,2049
26.958334,2047,2094,2048
26.979168,2047,2063,2048
27.000000,2047,2057,2052
27.020834,2047,2019,2048
27.041668,2047,1993,2030
27.062500,2047,1958,1999
27.083334,2047,1903,1965
27.104168,2047,1861,1931
27.125000,2047,1839,1892
27.145834,2047,1863,1891
27.166668,2047,1901,1903
27.187500,2047,1959,1928
27.208334,2047,2022,1959
27.229168,2047,2091,1997
27.250000,2047,2114,1995
27.270834,2047,2115,2020
27.291668,2047,2083,2030
27.312500,2047,2058,2021
27.333334,2047,2050,2026
27.354168,2047,1991,2020
27.375000,2047,1964,1999
27.395834,2047,1932,1985
27.416668,2047,1899,1955
27.437500,2047,1870,1931
27.458334,2047,1856,1922
27.479168,2047,1867,1930
27.500000,2047,1902,1934
27.520834,2047,1954,1959
27.541668,2047,2026,1997
27.562500,2047,2088,1997
27.583334,2047,2095,2021
27.604168,2047,2094,2023
27.625000,2047,2089,2022
27.645834,2047,2056,2018
27.666668,2047,1999,1989
27.687500,2047,1967,1995
27.708334,2047,1923,1963
27.729168,2047,1902,1957
27.750000,2047,1902,1924
27.770834,2047,1893,1931
27.791668,2047,1891,1931
27.812500,2047,1900,1925
27.833334,2047,1925,1965
27.854168,2047,1960,1986
27.875000,2047,1987,1987
27.895834,2047,2026,2017
27.916668,2047,2083,2020
27.937500,2047,2088,2018
27.958334,2047,2056,1995
27.979168,2047,2023,1985
28.000000,2047,1965,1967
28.020834,2047,1926,1963
28.041668,2047,1894,1928
28.062500,2047,1889,1926
28.083334,2047,1865,1902
28.104168,2047,1868,1902
28.125000,2047,1894,1927
28.145834,2047,1893,1927
28.166668,2047,1928,1964
28.187500,2047,1953,1967
28.208334,2047,1963,1984
28.229168,2047,1986,1992
28.250000,2047,2024,1995
28.270834,2047,2020,1995
28.291668,2047,2018,1988
28.312500,2047,2020,1995
28.333334,2047,1997,1967
28.354168,2047,1963,1967
28.375000,2047,1931,1934
28.395834,2047,1900,1933
28.416668,2047,1863,1901
28.437500,2047,1869,1893
28.458334,2047,1858,1896
28.479168,2047,1869,1927
28.500000,2047,1894,1933
28.520834,2047,1921,1957
28.541668,2047,1964,1992
28.562500,2047,1986,1986
28.583334,2047,1988,1988
28.604168,2047,1992,1997
28.625000,2047,1988,1987
28.645834,2047,1992,1962
28.666668,2047,1960,1966
28.687500,2047,1952,1953
28.708334,2047,1928,1924
28.729168,2047,1888,1929
28.750000,2047,1867,1903
28.770834,2047,1856,1897
28.791668,2047,1858,1900
28.812500,2047,1869,1923
28.833334,2047,1889,1924
28.854168,2047,1931,1959
28.875000,2047,1953,1959
28.895834,2047,1956,1985
28.916668,2047,1986,1994
28.937500,2047,1994,1996
28.958334,2047,1996,1995
28.979168,2047,1995,1991
29.000000,2047,1967,1965
29.020834,2047,1966,1952
29.041668,2047,1927,1935
29.062500,2047,1922,1923
29.083334,2047,1903,1927
29.104168,2047,1897,1925
29.125000,2047,1903,1931
29.145834,2047,1903,1928
29.166668,2047,1925,1963
29.187500,2047,1963,1967
29.208334,2047,1965,1997
29.229168,2047,1991,1988
29.250000,2047,1995,1991
29.270834,2047,1997,1990
29.291668,2047,1997,1985
29.312500,2047,1992,1996
29.333334,2047,1988,1991
29.354168,2047,1966,1985
29.375000,2047,1959,1961
29.395834,2047,1966,1955
29.416668,2047,1952,1961
29.437500,2047,1924,1955
29.458334,2047,1934,1935
29.479168,2047,1933,1957
29.500000,2047,1920,1963
29.520834,2047,1930,1955
29.541668,2047,1966,1988
29.562500,2047,1985,1987
29.583334,2047,1986,1997
29.604168,2047,2017,2021
29.625000,2047,2020,2024
29.645834,2047,2017,2017
29.666668,2047,1989,1991
29.687500,2047,1985,1991
29.708334,2047,1966,1959
29.729168,2047,1931,1960
29.750000,2047,1924,1955
29.770834,2047,1925,1956
29.791668,2047,1931,1960
29.812500,2047,1958,1955
29.833334,2047,1967,1965
29.854168,2047,1961,1991
29.875000,2047,1985,1984
29.895834,2047,1988,1988
29.916668,2047,1996,1994
29.937500,2047,1988,1999
29.958334,2047,1994,2017
29.979168,2047,1999,2017
30.000000,2047,1997,1992
30.020834,2047,1990,1987
30.041668,2047,1996,1996
30.062500,2047,1962,1988
30.083334,2047,1963,1959
30.104168,2047,1953,1952
30.125000,2047,1929,1963
30.145834,2047,1927,1964
30.166668,2047,1932,1967
30.187500,2047,1955,1958
30.208334,2047,1967,1966
30.229168,2047,1967,1996
30.250000,2047,1998,1994
30.270834,2047,1991,1997
30.291668,2047,1996,2018
30.312500,2047,1998,2018
30.333334,2047,1992,1998
30.354168,2047,1995,1985
30.375000,2047,1964,1989
30.395834,2047,1967,1960
30.416668,2047,1957,1967
30.437500,2047,1953,1965
30.458334,2047,1933,1961
30.479168,2047,1929,1959
30.500000,2047,1930,1963
30.520834,2047,1929,1963
30.541668,2047,1932,1967
30.562500,2047,1956,1959
30.583334,2047,1964,1965
30.604168,2047,1963,1990
30.625000,2047,1994,1986
30.645834,2047,1987,1991
30.666668,2047,1991,1992
30.687500,2047,1988,1992
30.708334,2047,1996,1999
30.729168,2047,1986,1995
30.750000,2047,1958,1985
30.770834,2047,1966,1963
30.791668,2047,1960,1959
30.812500,2047,1956,1955
30.833334,2047,1958,1957
30.854168,2047,1961,1958
30.875000,2047,1965,1959
30.895834,2047,1966,1959
30.916668,2047,1967,1960
30.937500,2047,1967,1961
30.958334,2047,1957,1984
30.979168,2047,1963,1992
31.000000,2047,1985,1998
31.020834,2047,1992,1987
31.041668,2047,1997,1992
31.062500,2047,1998,1991
31.083334,2047,1994,1986
31.104168,2047,1987,1992
31.125000,2047,1961,1967
31.145834,2047,1963,1959
31.166668,2047,1955,1967
31.187500,2047,1933,1962
31.208334,2047,1931,1959
31.229168,2047,1928,1958
31.250000,2047,1931,1960
31.270834,2047,1933,1965
31.291668,2047,1953,1954
31.312500,2047,1961,1962
31.333334,2047,1954,1990
31.354168,2047,1963,1994
31.375000,2047,1967,1996
31.395834,2047,1985,1996
31.416668,2047,1961,1989
31.437500,2047,1967,1962
31.458334,2047,1957,1956
31.479168,2047,1927,1961
31.500000,2047,1935,1953
31.520834,2047,1931,1933
31.541668,2047,1931,1931
31.562500,2047,1933,1934
31.583334,2047,1921,1935
31.604168,2047,1925,1958
31.625000,2047,1928,1961
31.645834,2047,1933,1953
31.666668,2047,1955,1962
31.687500,2047,1963,1985
31.708334,2047,1954,1988
31.729168,2047,1959,1990
31.750000,2047,1960,1988
31.770834,2047,1956,1984
31.791668,2047,1964,1961
31.812500,2047,1956,1952
31.833334,2047,1931,1962
31.854168,2047,1924,1959
31.875000,2047,1922,1956
31.895834,2047,1924,1960
31.916668,2047,1931,1965
31.937500,2047,1957,1956
31.958334,2047,1953,1966
31.979168,2047,1958,1985
32.000000,2047,1964,1992
32.020836,2047,1965,1994
32.041668,2047,1962,1992
32.062500,2047,1965,1995
32.083336,2047,1963,1991
32.104168,2047,1964,1993
32.125000,2047,1962,1989
32.145836,2047,1960,1987
32.166668,2047,1954,1967
32.187500,2047,1953,1965
32.208336,2047,1962,1959
32.229168,2047,1963,1960
32.250000,2047,1967,1960
32.270836,2047,1955,1965
32.291668,2047,1963,1987
32.312500,2047,1988,1995
32.333336,2047,1993,1999
32.354168,2047,1996,1991
32.375000,2047,1997,1995
32.395836,2047,1999,1996
32.416668,2047,1999,1995
32.437500,2047,1985,1992
32.458336,2047,1988,1992
32.479168,2047,1989,1992
32.500000,2047,1987,1990
32.520836,2047,1999,1987
32.541668,2047,1996,1986
32.562500,2047,1989,1996
32.583336,2047,1967,1993
32.604168,2047,1962,1988
32.625000,2047,1962,1985
32.645836,2047,1965,1990
32.666668,2047,1985,1992
32.687500,2047,1990,1984
32.708336,2047,1993,1985
32.729168,2047,1998,1991
32.750000,2047,1994,1985
32.770836,2047,1993,1987
32.791668,2047,1989,1986
32.812500,2047,1986,1996
32.833336,2047,1967,1993
32.854168,2047,1967,1992
32.875000,2047,1964,1987
32.895836,2047,1965,1987
32.916668,2047,1963,1986
32.937500,2047,1967,1989
32.958336,2047,1986,1992
32.979168,2047,1992,1998
33.000000,2047,1996,1999
33.020836,2047,1999,1989
33.041668,2047,1998,1988
33.062500,2047,1996,1989
33.083336,2047,1994,1985
33.104168,2047,1994,1986
33.125000,2047,1995,1999
33.145836,2047,1997,1985
33.166668,2047,1984,1989
33.187500,2047,1998,1987
33.208336,2047,1994,1984
33.229168,2047,1992,1996
33.250000,2047,1987,1994
33.270836,2047,1985,1992
33.291668,2047,1966,1988
33.312500,2047,1965,1989
33.333336,2047,1963,1989
33.354168,2047,1962,1986
33.375000,2047,1962,1987
33.395836,2047,1964,1989
33.416668,2047,1967,1991
33.437500,2047,1986,1993
33.458336,2047,1985,1994
33.479168,2047,1965,1991
33.500000,2047,1959,1987
33.520836,2047,1954,1967
33.541668,2047,1967,1964
33.562500,2047,1953,1965
33.583336,2047,1953,1961
33.604168,2047,1957,1963
33.625000,2047,1955,1960
33.645836,2047,1956,1963
33.666668,2047,1954,1966
33.687500,2047,1952,1964
33.708336,2047,1952,1966
33.729168,2047,1967,1963
33.750000,2047,1967,1962
33.770836,2047,1965,1960
33.791668,2047,1966,1962
33.812500,2047,1966,1961
33.833336,2047,1952,1962
33.854168,2047,1955,1967
33.875000,2047,1958,1985
33.895836,2047,1959,1967
33.916668,2047,1960,1985
33.937500,2047,1957,1967
33.958336,2047,1957,1964
33.979168,2047,1956,1966
34.000000,2047,1952,1963
34.020836,2047,1966,1963
34.041668,2047,1963,1962
34.062500,2047,1961,1962
34.083336,2047,1961,1964
34.104168,2047,1965,1964
34.125000,2047,1954,1967
34.145836,2047,1962,1986
34.166668,2047,1967,1990
34.187500,2047,1986,1994
34.208336,2047,1987,1997
34.229168,2047,1967,1993
34.250000,2047,1965,1991
34.270836,2047,1962,1990
34.291668,2047,1965,1989
34.312500,2047,1965,1991
34.333336,2047,1966,1991
34.354168,2047,1966,1991
34.375000,2047,1963,1991
34.395836,2047,1961,1991
34.416668,2047,1957,1987
34.437500,2047,1955,1966
34.458336,2047,1953,1965
34.479168,2047,1954,1965
34.500000,2047,1956,1967
34.520836,2047,1956,1966
34.541668,2047,1958,1966
34.562500,2047,1956,1967
34.583336,2047,1957,1986
34.604168,2047,1956,1988
34.625000,2047,1956,1988
34.645836,2047,1958,1990
34.666668,2047,1954,1966
34.687500,2047,1954,1966
34.708336,2047,1959,1967
34.729168,2047,1960,1986
34.750000,2047,1956,1967
34.770836,2047,1952,1965
34.791668,2047,1952,1966
34.812500,2047,1967,1965
34.833336,2047,1952,1966
34.854168,2047,1959,1984
34.875000,2047,1961,1985
34.895836,2047,1960,1966
34.916668,2047,1958,1964
34.937500,2047,1955,1964
34.958336,2047,1964,1962
34.979168,2047,1965,1965
35.000000,2047,1967,1967
35.020836,2047,1954,1986
35.041668,2047,1958,1986
35.062500,2047,1964,1991
35.083336,2047,1965,1992
35.104168,2047,1959,1987
35.125000,2047,1957,1987
35.145836,2047,1954,1984
35.166668,2047,1953,1966
35.187500,2047,1953,1963
35.208336,2047,1955,1959
35.229168,2047,1955,1960
35.250000,2047,1953,1959
35.270836,2047,1965,1959
35.291668,2047,1963,1962
35.312500,2047,1961,1963
35.333336,2047,1960,1963
35.354168,2047,1963,1964
35.375000,2047,1952,1966
35.395836,2047,1953,1966
35.416668,2047,1961,1986
35.437500,2047,1961,1986
35.458336,2047,1963,1988
35.479168,2047,1962,1986
35.500000,2047,1958,1985
35.520836,2047,1957,1967
35.541668,2047,1955,1965
35.562500,2047,1954,1962
35.583336,2047,1956,1964
35.604168,2047,1958,1984
35.625000,2047,1958,1986
35.645836,2047,1959,1989
35.666668,2047,1958,1987
35.687500,2047,1960,1989
35.708336,2047,1957,1986
35.729168,2047,1959,1986
35.750000,2047,1960,1984
35.770836,2047,1963,1987
35.791668,2047,1965,1989
35.812500,2047,1967,1991
35.833336,2047,1967,1993
35.854168,2047,1967,1994
35.875000,2047,1967,1992
35.895836,2047,1967,1989
35.916668,2047,1985,1989
35.937500,2047,1967,1988
35.958336,2047,1967,1988
35.979168,2047,1964,1987
36.000000,2047,1962,1988
36.020836,2047,1957,1986
36.041668,2047,1954,1967
36.062500,2047,1952,1965
36.083336,2047,1955,1967
36.104168,2047,1955,1966
36.125000,2047,1959,1967
36.145836,2047,1960,1984
36.166668,2047,1959,1967
36.187500,2047,1958,1967
36.208336,2047,1954,1965
36.229168,2047,1952,1963
36.250000,2047,1955,1965
36.270836,2047,1956,1963
36.291668,2047,1958,1964
36.312500,2047,1960,1967
36.333336,2047,1961,1984
36.354168,2047,1962,1986
36.375000,2047,1961,1987
36.395836,2047,1956,1986
36.416668,2047,1956,1987
36.437500,2047,1954,1985
36.458336,2047,1952,1965
36.479168,2047,1954,1966
36.500000,2047,1955,1966
36.520836,2047,1956,1967
36.541668,2047,1957,1966
36.562500,2047,1959,1965
36.583336,2047,1961,1966
36.604168,2047,1960,1967
36.625000,2047,1961,1967
36.645836,2047,1962,1987
36.666668,2047,1961,1988
36.687500,2047,1959,1987
36.708336,2047,1957,1987
36.729168,2047,1952,1967
36.750000,2047,1953,1967
36.770836,2047,1953,1966
36.791668,2047,1967,1966
36.812500,2047,1967,1965
36.833336,2047,1955,1967
36.854168,2047,1955,1967
36.875000,2047,1957,1966
36.895836,2047,1962,1984
36.916668,2047,1965,1984
36.937500,2047,1963,1984
36.958336,2047,1963,1967
36.979168,2047,1958,1967
37.000000,2047,1954,1965
37.020836,2047,1955,1967
37.041668,2047,1954,1967
37.062500,2047,1954,1965
37.083336,2047,1955,1984
37.104168,2047,1954,1967
37.125000,2047,1952,1964
37.145836,2047,1953,1967
37.166668,2047,1967,1963
37.187500,2047,1967,1962
37.208336,2047,1967,1964
37.229168,2047,1965,1960
37.250000,2047,1965,1960
37.270836,2047,1964,1960
37.291668,2047,1961,1955
37.312500,2047,1963,1958
37.333336,2047,1962,1960
37.354168,2047,1965,1961
37.375000,2047,1967,1962
37.395836,2047,1953,1963
37.416668,2047,1953,1966
37.437500,2047,1955,1984
37.458336,2047,1967,1965
37.479168,2047,1965,1963
37.500000,2047,1965,1965
37.520836,2047,1961,1959
37.541668,2047,1961,1958
37.562500,2047,1958,1955
37.583336,2047,1956,1967
37.604168,2047,1956,1952
37.625000,2047,1955,1966
37.645836,2047,1954,1966
37.666668,2047,1954,1965
37.687500,2047,1953,1967
37.708336,2047,1953,1953
37.729168,2047,1954,1957
37.750000,2047,1956,1958
37.770836,2047,1959,1958
37.791668,2047,1963,1963
37.812500,2047,1963,1962
37.833336,2047,1966,1962
37.854168,2047,1966,1963
37.875000,2047,1962,1959
37.895836,2047,1963,1962
37.916668,2047,1963,1962
37.937500,2047,1963,1959
37.958336,2047,1953,1965
37.979168,2047,1955,1965
38.000000,2047,1959,1967
38.020836,2047,1960,1967
38.041668,2047,1959,1966
38.062500,2047,1958,1966
38.083336,2047,1954,1964
38.104168,2047,1967,1963
38.125000,2047,1964,1962
38.145836,2047,1964,1962
38.166668,2047,1967,1964
38.187500,2047,1956,1967
38.208336,2047,1958,1984
38.229168,2047,1961,1988
38.250000,2047,1960,1987
38.270836,2047,1957,1985
38.291668,2047,1955,1967
38.312500,2047,1967,1965
38.333336,2047,1955,1967
38.354168,2047,1958,1967
38.375000,2047,1959,1967
38.395836,2047,1962,1967
38.416668,2047,1961,1984
38.437500,2047,1959,1967
38.458336,2047,1959,1967
38.479168,2047,1957,1966
38.500000,2047,1959,1967
38.520836,2047,1960,1984
38.541668,2047,1961,1987
38.562500,2047,1966,1990
38.583336,2047,1967,1991
38.604168,2047,1967,1991
38.625000,2047,1985,1992
38.645836,2047,1967,1991
38.666668,2047,1965,1989
38.687500,2047,1962,1986
38.708336,2047,1960,1986
38.729168,2047,1962,1987
38.750000,2047,1962,1987
38.770836,2047,1962,1986
38.791668,2047,1960,1984
38.812500,2047,1964,1967
38.833336,2047,1965,1987
38.854168,2047,1964,1986
38.875000,2047,1961,1967
38.895836,2047,1957,1967
38.916668,2047,1956,1966
38.937500,2047,1955,1967
38.958336,2047,1959,1987
38.979168,2047,1960,1984
39.000000,2047,1962,1967
39.020836,2047,1966,1967
39.041668,2047,1964,1967
39.062500,2047,1962,1985
39.083336,2047,1963,1986
39.104168,2047,1956,1967
39.125000,2047,1959,1985
39.145836,2047,1956,1967
39.166668,2047,1955,1965
39.187500,2047,1958,1965
39.208336,2047,1956,1964
39.229168,2047,1960,1987
39.250000,2047,1958,1987
39.270836,2047,1957,1967
39.291668,2047,1955,1967
39.312500,2047,1956,1965
39.333336,2047,1954,1963
39.354168,2047,1954,1963
39.375000,2047,1955,1963
39.395836,2047,1955,1964
39.416668,2047,1956,1963
39.437500,2047,1956,1966
39.458336,2047,1958,1986
39.479168,2047,1958,1967
39.500000,2047,1959,1984
39.520836,2047,1963,1987
39.541668,2047,1962,1987
39.562500,2047,1963,1989
39.583336,2047,1957,1985
39.604168,2047,1955,1967
39.625000,2047,1952,1964
39.645836,2047,1967,1961
39.666668,2047,1967,1961
39.687500,2047,1955,1965
39.708336,2047,1957,1966
39.729168,2047,1963,1987
39.750000,2047,1961,1986
39.770836,2047,1961,1987
39.791668,2047,1958,1967
39.812500,2047,1954,1965
39.833336,2047,1958,1985
39.854168,2047,1958,1967
39.875000,2047,1965,1989
39.895836,2047,1966,1989
39.916668,2047,1984,1993
39.937500,2047,1965,1993
39.958336,2047,1958,1988
39.979168,2047,1967,1965
40.000000,2047,1961,1957
40.020836,2047,1958,1952
40.041668,2047,1955,1952
40.062500,2047,1958,1953
40.083336,2047,1966,1961
40.104168,2047,1959,1985
40.125000,2047,1959,1987
40.145836,2047,1963,1992
40.166668,2047,1960,1990
40.187500,2047,1960,1991
40.208336,2047,1959,1988
40.229168,2047,1959,1988
40.250000,2047,1960,1986
40.270836,2047,1962,1988
40.291668,2047,1961,1991
40.312500,2047,1963,1989
40.333336,2047,1963,1991
40.354168,2047,1964,1989
40.375000,2047,1967,1990
40.395836,2047,1988,1990
40.416668,2047,1991,1994
40.437500,2047,1995,1986
40.458336,2047,1999,1991
40.479168,2047,1985,1995
40.500000,2047,1985,1995
40.520836,2047,1984,1994
40.541668,2047,1999,1991
40.562500,2047,1999,1986
40.583336,2047,1998,1987
40.604168,2047,1994,1997
40.625000,2047,1994,1998
40.645836,2047,1993,1997
40.666668,2047,1993,1985
40.687500,2047,1990,1998
40.708336,2047,1991,1999
40.729168,2047,1994,1984
40.750000,2047,1991,1985
40.770836,2047,1992,1999
40.791668,2047,1992,1984
40.812500,2047,1995,1999
40.833336,2047,1992,1998
40.854168,2047,1987,1995
40.875000,2047,1967,1993
40.895836,2047,1962,1988
40.916668,2047,1956,1965
40.937500,2047,1967,1962
40.958336,2047,1967,1959
40.979168,2047,1956,1963
41.000000,2047,1961,1967
41.020836,2047,1964,1987
41.041668,2047,1986,1995
41.062500,2047,1985,1992
41.083336,2047,1985,1993
41.104168,2047,1965,1991
41.125000,2047,1961,1990
41.145836,2047,1961,1989
41.166668,2047,1960,1986
41.187500,2047,1962,1989
41.208336,2047,1959,1986
41.229168,2047,1962,1967
41.250000,2047,1961,1967
41.270836,2047,1959,1966
41.291668,2047,1959,1964
41.312500,2047,1959,1965
41.333336,2047,1957,1966
41.354168,2047,1954,1967
41.375000,2047,1954,1966
41.395836,2047,1953,1967
41.416668,2047,1955,1965
41.437500,2047,1958,1967
41.458336,2047,1961,1984
41.479168,2047,1963,1987
41.500000,2047,1965,1991
41.520836,2047,1966,1992
41.541668,2047,1963,1990
41.562500,2047,1966,1994
41.583336,2047,1966,1993
41.604168,2047,1986,1992
41.625000,2047,1985,1991
41.645836,2047,1985,1991
41.666668,2047,1964,1985
41.687500,2047,1963,1988
41.708336,2047,1965,1987
41.729168,2047,1965,1991
41.750000,2047,1967,1991
41.770836,2047,1965,1992
41.791668,2047,1965,1991
41.812500,2047,1962,1985
41.833336,2047,1963,1987
41.854168,2047,1960,1985
41.875000,2047,1962,1987
41.895836,2047,1960,1987
41.916668,2047,1959,1986
41.937500,2047,1959,1984
41.958336,2047,1961,1986
41.979168,2047,1965,1990
42.000000,2047,1965,1989
42.020836,2047,1987,1994
42.041668,2047,1987,1995
42.062500,2047,1984,1995
42.083336,2047,1966,1993
42.104168,2047,1964,1991
42.125000,2047,1965,1989
42.145836,2047,1967,1988
42.166668,2047,1966,1989
42.187500,2047,1965,1989
42.208336,2047,1964,1988
42.229168,2047,1964,1987
42.250000,2047,1965,1991
42.270836,2047,1963,1987
42.291668,2047,1985,1992
42.312500,2047,1989,1995
42.333336,2047,1995,1986
42.354168,2047,1985,1992
42.375000,2047,1999,1989
42.395836,2047,1996,1989
42.416668,2047,1991,1998
42.437500,2047,1987,1999
42.458336,2047,1967,1995
42.479168,2047,1964,1991
42.500000,2047,1967,1991
42.520836,2047,1986,1991
42.541668,2047,1989,1992
42.562500,2047,1989,1994
42.583336,2047,1987,1993
42.604168,2047,1987,1996
42.625000,2047,1989,1999
42.645836,2047,1991,1987
42.666668,2047,1993,1989
42.687500,2047,1997,1991
42.708336,2047,1999,1992
42.729168,2047,1984,1990
42.750000,2047,1986,1990
42.770836,2047,1998,1987
42.791668,2047,1993,1999
42.812500,2047,1984,1991
42.833336,2047,1965,1989
42.854168,2047,1962,1989
42.875000,2047,1964,1989
42.895836,2047,1967,1994
42.916668,2047,1988,1995
42.937500,2047,1995,1984
42.958336,2047,1999,1990
42.979168,2047,1989,1995
43.000000,2047,1989,1993
43.020836,2047,1985,1988
43.041668,2047,1998,1999
43.062500,2047,1991,1996
43.083336,2047,1986,1992
43.104168,2047,1962,1967
43.125000,2047,1959,1965
43.145836,2047,1957,1966
43.166668,2047,1960,1984
43.187500,2047,1959,1985
43.208336,2047,1964,1990
43.229168,2047,1965,1989
43.250000,2047,1967,1991
43.270836,2047,1985,1992
43.291668,2047,1966,1989
43.312500,2047,1967,1987
43.333336,2047,1963,1984
43.354168,2047,1959,1965
43.375000,2047,1952,1963
43.395836,2047,1964,1961
43.416668,2047,1955,1953
43.437500,2047,1956,1953
43.458336,2047,1957,1953
43.479168,2047,1958,1967
43.500000,2047,1965,1955
43.520836,2047,1952,1958
43.541668,2047,1952,1958
43.562500,2047,1964,1957
43.583336,2047,1965,1961
43.604168,2047,1962,1959
43.625000,2047,1964,1959
43.645836,2047,1963,1959
43.666668,2047,1967,1961
43.687500,2047,1953,1961
43.708336,2047,1952,1959
43.729168,2047,1967,1958
43.750000,2047,1963,1956
43.770836,2047,1956,1967
43.791668,2047,1953,1963
43.812500,2047,1935,1965
43.833336,2047,1952,1963
43.854168,2047,1952,1962
43.875000,2047,1956,1967
43.895836,2047,1957,1953
43.916668,2047,1960,1957
43.937500,2047,1959,1958
43.958336,2047,1961,1963
43.979168,2047,1959,1957
44.000000,2047,1958,1955
44.020836,2047,1961,1956
44.041668,2047,1964,1955
44.062500,2047,1962,1953
44.083336,2047,1955,1967
44.104168,2047,1934,1966
44.125000,2047,1930,1964
44.145836,2047,1929,1965
44.166668,2047,1929,1967
44.187500,2047,1929,1961
44.208336,2047,1929,1961
44.229168,2047,1928,1959
44.250000,2047,1930,1958
44.270836,2047,1934,1961
44.291668,2047,1935,1963
44.312500,2047,1955,1953
44.333336,2047,1957,1955
44.354168,2047,1962,1958
44.375000,2047,1964,1959
44.395836,2047,1966,1963
44.416668,2047,1963,1959
44.437500,2047,1958,1957
44.458336,2047,1933,1967
44.479168,2047,1929,1966
44.500000,2047,1929,1964
44.520836,2047,1934,1963
44.541668,2047,1955,1965
44.562500,2047,1960,1966
44.583336,2047,1962,1954
44.604168,2047,1960,1957
44.625000,2047,1959,1959
44.645836,2047,1935,1956
44.666668,2047,1955,1961
44.687500,2047,1956,1961
44.708336,2047,1961,1962
44.729168,2047,1965,1962
44.750000,2047,1954,1962
44.770836,2047,1957,1965
44.791668,2047,1957,1984
44.812500,2047,1959,1988
44.833336,2047,1956,1985
44.854168,2047,1957,1984
44.875000,2047,1957,1966
44.895836,2047,1960,1985
44.916668,2047,1959,1967
44.937500,2047,1957,1967
44.958336,2047,1953,1964
44.979168,2047,1965,1963
45.000000,2047,1965,1964
45.020836,2047,1963,1962
45.041668,2047,1952,1963
45.062500,2047,1954,1966
45.083336,2047,1959,1985
45.104168,2047,1961,1987
45.125000,2047,1962,1989
45.145836,2047,1960,1986
45.166668,2047,1961,1988
45.187500,2047,1959,1985
45.208336,2047,1960,1984
45.229168,2047,1961,1984
45.250000,2047,1961,1984
45.270836,2047,1964,1967
45.291668,2047,1963,1987
45.312500,2047,1966,1993
45.333336,2047,1966,1992
45.354168,2047,1984,1994
45.375000,2047,1986,1996
45.395836,2047,1986,1993
45.416668,2047,1987,1993
45.437500,2047,1985,1991
45.458336,2047,1984,1991
45.479168,2047,1967,1990
45.500000,2047,1965,1990
45.520836,2047,1966,1992
45.541668,2047,1965,1992
45.562500,2047,1967,1991
45.583336,2047,1966,1991
45.604168,2047,1965,1989
45.625000,2047,1965,1989
45.645836,2047,1985,1990
45.666668,2047,1985,1991
45.687500,2047,1990,1994
45.708336,2047,1993,1995
45.729168,2047,1995,1995
45.750000,2047,1998,1997
45.770836,2047,1997,1997
45.791668,2047,1995,1998
45.812500,2047,1991,1999
45.833336,2047,1991,1999
45.854168,2047,1989,1997
45.875000,2047,1986,1993
45.895836,2047,1986,1993
45.916668,2047,1986,1989
45.937500,2047,1986,1989
45.958336,2047,1986,1987
45.979168,2047,1986,1992
46.000000,2047,1987,1994
46.020836,2767,1988,1992
46.041668,3385,1990,1995
46.062500,3813,1991,1994
46.083336,3988,1995,1998
46.104168,3888,1999,1986
46.125000,3525,1995,1989
46.145836,2952,2083,2017
46.166668,2250,2286,2120
46.187500,1519,2658,2282
46.208336,863,2980,2528
46.229168,375,2980,2670
46.250000,126,2862,2600
46.270836,150,1993,2176
46.291668,444,943,1542
46.312500,966,943,961
46.333336,2047,942,960
46.354168,2047,943,960
46.375000,2047,943,960
46.395836,2047,943,961
46.416668,2047,1839,1377
46.437500,2047,2979,2534
46.458336,2047,2980,2990
46.479168,2047,2979,2991
46.500000,2047,2980,2991
46.520836,2047,2980,2990
46.541668,2047,2980,2991
46.562500,2047,2639,2990
46.583336,2047,942,1764
46.604168,2047,942,960
46.625000,2047,943,960
46.645836,2047,942,961
46.666668,2047,942,943
46.687500,2047,943,961
46.708336,2047,1763,1199
46.729168,2047,2980,2152
46.750000,2047,2979,2991
46.770836,2047,2980,2990
46.791668,2047,2980,2991
46.812500,2047,2979,2991
46.833336,2047,2980,2991
46.854168,2047,2979,2991
46.875000,2047,2980,2990
46.895836,2047,2979,2991
46.916668,2047,2401,2472
46.937500,2047,942,1391
46.958336,2047,942,943
46.979168,2047,942,960
47.000000,2047,942,961
47.020836,2047,942,960
47.041668,2047,1218,960
47.062500,2047,2119,1475
47.083336,2047,2671,2050
47.104168,2047,2795,2408
47.125000,2047,2826,2638
47.145836,2047,2981,2884
47.166668,2047,2980,2990
47.187500,2047,2980,2991
47.208336,2047,2980,2991
47.229168,2047,2980,2991
47.250000,2047,2945,2888
47.270836,2047,1742,2118
47.291668,2047,943,1199
47.312500,2047,942,960
47.333336,2047,943,960
47.354168,2047,942,960
47.375000,2047,942,943
47.395836,2047,1455,1191
47.416668,2047,2083,1709
47.437500,2047,2403,2113
47.458336,2047,2594,2402
47.479168,2047,2830,2638
47.500000,2047,2980,2824
47.520836,2047,2980,2991
47.541668,2047,2980,2991
47.562500,2047,2980,2991
47.583336,2047,2980,2797
47.604168,2047,2411,2346
47.625000,2047,1353,1737
47.645836,2047,942,1223
47.666668,2047,943,960
47.687500,2047,943,960
47.708336,2047,943,960
47.729168,2047,1134,1191
47.750000,2047,1602,1506
47.770836,2047,1999,1830
47.791668,2047,2341,2125
47.812500,2047,2624,2348
47.833336,2047,2914,2532
47.854168,2047,2980,2698
47.875000,2047,2980,2763
47.895836,2047,2980,2752
47.916668,2047,2977,2629
47.937500,2047,2639,2414
47.958336,2047,2030,2059
47.979168,2047,1390,1732
48.000000,2047,943,1408
48.020836,2047,943,1186
48.041668,2047,943,1127
48.062500,2047,997,1190
48.083336,2047,1289,1376
48.104168,2047,1678,1638
48.125000,2047,2113,1958
48.145836,2047,2505,2223
48.166668,2047,2796,2432
48.187500,2047,2959,2571
48.208336,2047,2980,2605
48.229168,2047,2978,2575
48.250000,2047,2819,2504
48.270836,2047,2600,2370
48.291668,2047,2281,2176
48.312500,2047,1923,1999
48.333336,2047,1610,1796
48.354168,2047,1323,1570
48.375000,2047,1127,1418
48.395836,2047,1100,1348
48.416668,2047,1194,1388
48.437500,2047,1455,1545
48.458336,2047,1766,1767
48.479168,2047,2154,1987
48.500000,2047,2444,2210
48.520836,2047,2659,2378
48.541668,2047,2760,2442
48.562500,2047,2755,2468
48.583336,2047,2669,2403
48.604168,2047,2542,2312
48.625000,2047,2350,2223
48.645836,2047,2153,2084
48.666668,2047,1903,1958
48.687500,2047,1668,1795
48.708336,2047,1475,1665
48.729168,2047,1347,1580
48.750000,2047,1354,1542
48.770836,2047,1487,1606
48.791668,2047,1711,1734
48.812500,2047,1997,1899
48.833336,2047,2245,2080
48.854168,2047,2436,2180
48.875000,2047,2498,2242
48.895836,2047,2501,2251
48.916668,2047,2434,2248
48.937500,2047,2344,2218
48.958336,2047,2243,2188
48.979168,2047,2157,2154
49.000000,2047,2058,2080
49.020836,2047,1920,1995
49.041668,2047,1795,1902
49.062500,2047,1642,1771
49.083336,2047,1550,1677
49.104168,2047,1548,1639
49.125000,2047,1608,1679
49.145836,2047,1761,1775
49.166668,2047,1954,1901
49.187500,2047,2159,2026
49.208336,2047,2313,2120
49.229168,2047,2379,2185
49.250000,2047,2381,2191
49.270836,2047,2317,2159
49.291668,2047,2255,2150
49.312500,2047,2153,2124
49.333336,2047,2061,2090
49.354168,2047,1962,2025
49.375000,2047,1866,1953
49.395836,2047,1775,1890
49.416668,2047,1709,1802
49.437500,2047,1673,1772
49.458336,2047,1705,1770
49.479168,2047,1802,1795
49.500000,2047,1892,1859
49.520836,2047,1998,1927
49.541668,2047,2119,1988
49.562500,2047,2146,2018
49.583336,2047,2155,2027
49.604168,2047,2155,2030
49.625000,2047,2121,2056
49.645836,2047,2122,2059
49.666668,2047,2089,2090
49.687500,2047,2056,2089
49.708336,2047,1995,2056
49.729168,2047,1899,1995
49.750000,2047,1824,1899
49.770836,2047,1736,1837
49.791668,2047,1709,1795
49.812500,2047,1739,1794
49.833336,2047,1833,1834
49.854168,2047,1920,1896
49.875000,2047,2030,1960
49.895836,2047,2112,1985
49.916668,2047,2114,2023
49.937500,2047,2112,2029
49.958336,2047,2063,2027
49.979168,2047,2021,2020
50.000000,2047,1991,1998
50.020836,2047,1967,1992
50.041668,2047,1923,1988
50.062500,2047,1892,1961
50.083336,2047,1861,1933
50.104168,2047,1834,1893
50.125000,2047,1825,1898
50.145836,2047,1839,1888
50.166668,2047,1895,1921
50.187500,2047,1935,1929
50.208336,2047,1988,1967
50.229168,2047,2029,1966
50.250000,2047,2083,1992
50.270836,2047,2082,1996
50.291668,2047,2056,1988
50.312500,2047,2055,2017
50.333336,2047,2016,2023
50.354168,2047,1995,2021
50.375000,2047,1955,1994
50.395836,2047,1920,1967
50.416668,2047,1901,1952
50.437500,2047,1857,1934
50.458336,2047,1866,1927
50.479168,2047,1867,1921
