TimeMS,Input,Output_1,Output_2
0.000000,2047,1955,1962
0.020833,2047,1956,1967
0.041667,2047,1957,1967
0.062500,2047,1956,1966
0.083333,2047,1955,1967
0.104167,2047,1954,1963
0.125000,2047,1967,1961
0.145833,2047,1967,1961
0.166667,2047,1967,1960
0.187500,2047,1964,1957
0.208333,2047,1963,1959
0.229167,2047,1960,1956
0.250000,2047,1960,1955
0.270833,2047,1959,1956
0.291667,2047,1959,1956
0.312500,2047,1962,1958
0.333333,2047,1964,1960
0.354167,2047,1963,1960
0.375000,2047,1965,1959
0.395833,2047,1953,1961
0.416667,2047,1955,1963
0.437500,2047,1958,1967
0.458333,2047,1959,1967
0.479167,2047,1962,1985
0.500000,2047,1963,1988
0.520833,2047,1966,1990
0.541667,2047,1987,1992
0.562500,2047,1993,1996
0.583333,2047,1996,1997
0.604167,2047,1987,1989
0.625000,2047,1990,1993
0.645833,2047,1992,1996
0.666667,2047,1991,1995
0.687500,2047,1993,1998
0.708333,2047,1991,1995
0.729167,2047,1989,1991
0.750000,2047,1988,1989
0.770833,2047,1986,1985
0.791667,2047,1984,1984
0.812500,2047,1985,1987
0.833333,2047,1998,1985
0.854167,2047,1997,1985
0.875000,2047,1995,1985
0.895833,2047,1988,1997
0.916667,2047,1986,1996
0.937500,2047,1985,1994
0.958333,2047,1966,1992
0.979167,2047,1963,1987
1.000000,2047,1963,1989
1.020833,2047,1963,1987
1.041667,2047,1965,1989
1.062500,2047,1964,1987
1.083333,2047,1963,1987
1.104167,2047,1959,1985
1.125000,2047,1956,1985
1.145833,2047,1953,1967
1.166667,2047,1953,1984
1.187500,2047,1954,1967
1.208333,2047,1955,1984
1.229167,2047,1958,1985
1.250000,2047,1961,1986
1.270833,2047,1962,1984
1.291667,2047,1963,1984
1.312500,2047,1964,1988
1.333333,2047,1962,1987
1.354167,2047,1959,1986
1.375000,2047,1958,1985
1.395833,2047,1958,1986
1.416667,2047,1958,1985
1.437500,2047,1961,1988
1.458333,2047,1963,1990
1.479167,2047,1987,1994
1.500000,2047,1991,1998
1.520833,2047,1997,1985
1.541667,2047,1997,1985
1.562500,2047,1999,1986
1.583333,2047,1997,1986
1.604167,2047,1997,1987
1.625000,2047,1994,1984
1.645833,2047,1995,1985
1.666667,2047,1993,1999
1.687500,2047,1995,1999
1.708333,2047,1994,1999
1.729167,2047,1994,1984
1.750000,2047,1993,1999
1.770833,2047,1995,1984
1.791667,2047,1994,1997
1.812500,2047,1995,1999
1.833333,2047,1994,1998
1.854167,2047,1995,1999
1.875000,2047,1994,1995
1.895833,2047,1994,1997
1.916667,2047,1991,1994
1.937500,2047,1989,1994
1.958333,2047,1967,1990
1.979167,2047,1963,1987
2.000000,2047,1960,1985
2.020833,2047,1958,1967
2.041667,2047,1957,1967
2.062500,2047,1954,1965
2.083333,2047,1954,1965
2.104167,2047,1952,1965
2.125000,2047,1953,1966
2.145833,2047,1953,1965
2.166667,2047,1955,1964
2.187500,2047,1954,1965
2.208333,2047,1955,1966
2.229167,2047,1952,1964
2.250000,2047,1965,1961
2.270833,2047,1963,1959
2.291667,2047,1961,1957
2.312500,2047,1964,1959
2.333333,2047,1965,1958
2.354167,2047,1966,1957
2.375000,2047,1966,1957
2.395833,2047,1965,1957
2.416667,2047,1965,1959
2.437500,2047,1964,1958
2.458333,2047,1963,1955
2.479167,2047,1962,1953
2.500000,2047,1961,1967
2.520833,2047,1962,1954
2.541667,2047,1961,1953
2.562500,2047,1959,1953
2.583333,2047,1958,1954
2.604167,2047,1958,1958
2.625000,2047,1957,1957
2.645833,2047,1957,1955
2.666667,2047,1959,1958
2.687500,2047,1959,1956
2.708333,2047,1958,1955
2.729167,2047,1958,1955
2.750000,2047,1957,1954
2.770833,2047,1956,1953
2.791667,2047,1954,1967
2.812500,2047,1935,1967
2.833333,2047,1934,1966
2.854167,2047,1934,1967
2.875000,2047,1935,1967
2.895833,2047,1952,1967
2.916667,2047,1955,1953
2.937500,2047,1957,1953
2.958333,2047,1958,1954
2.979167,2047,1960,1956
3.000000,2047,1961,1958
3.020833,2047,1961,1959
3.041667,2047,1961,1961
3.062500,2047,1962,1961
3.083333,2047,1964,1961
3.104167,2047,1966,1960
3.125000,2047,1965,1959
3.145833,2047,1964,1959
3.166667,2047,1964,1959
3.187500,2047,1962,1958
3.208333,2047,1960,1957
3.229167,2047,1959,1955
3.250000,2047,1961,1955
3.270833,2047,1960,1954
3.291667,2047,1957,1967
3.312500,2047,1956,1953
3.333333,2047,1957,1955
3.354167,2047,1960,1957
3.375000,2047,1961,1958
3.395833,2047,1963,1959
3.416667,2047,1961,1957
3.437500,2047,1964,1961
3.458333,2047,1963,1961
3.479167,2047,1964,1962
3.500000,2047,1963,1961
3.520833,2047,1961,1960
3.541667,2047,1962,1962
3.562500,2047,1962,1960
3.583333,2047,1961,1962
3.604167,2047,1959,1960
3.625000,2047,1955,1957
3.645833,2047,1952,1957
3.666667,2047,1952,1956
3.687500,2047,1934,1953
3.708333,2047,1931,1967
3.729167,2047,1929,1963
3.750000,2047,1930,1963
3.770833,2047,1932,1964
3.791667,2047,1934,1966
3.812500,2047,1954,1953
3.833333,2047,1956,1956
3.854167,2047,1960,1959
3.875000,2047,1961,1958
3.895833,2047,1961,1958
3.916667,2047,1962,1958
3.937500,2047,1962,1958
3.958333,2047,1962,1958
3.979167,2047,1961,1957
4.000000,2047,1962,1957
4.020833,2047,1962,1958
4.041667,2047,1964,1961
4.062500,2047,1967,1962
4.083333,2047,1952,1962
4.104167,2047,1954,1959
4.125000,2047,1953,1962
4.145833,2047,1954,1963
4.166667,2047,1954,1963
4.187500,2047,1955,1962
4.208333,2047,1955,1962
4.229167,2047,1955,1962
4.250000,2047,1958,1963
4.270833,2047,1960,1965
4.291667,2047,1964,1965
4.312500,2047,1965,1964
4.333333,2047,1966,1966
4.354167,2047,1965,1967
4.375000,2047,1967,1966
4.395833,2047,1967,1966
4.416667,2047,1966,1964
4.437500,2047,1965,1966
4.458333,2047,1961,1963
4.479167,2047,1958,1960
4.500000,2047,1955,1956
4.520833,2047,1958,1958
4.541667,2047,1957,1958
4.562500,2047,1955,1959
4.583333,2047,1956,1960
4.604167,2047,1959,1963
4.625000,2047,1964,1967
4.645833,2047,1984,1987
4.666667,2047,1964,1984
4.687500,2047,1966,1987
4.708333,2047,1963,1984
4.729167,2047,1964,1987
4.750000,2047,1965,1989
4.770833,2047,1964,1989
4.791667,2047,1966,1991
4.812500,2047,1965,1992
4.833333,2047,1963,1989
4.854167,2047,1963,1992
4.875000,2047,1961,1989
4.895833,2047,1963,1989
4.916667,2047,1962,1987
4.937500,2047,1964,1987
4.958333,2047,1964,1987
4.979167,2047,1965,1987
5.000000,2047,1963,1988
5.020833,2047,1962,1984
5.041667,2047,1958,1987
5.062500,2047,1958,1988
5.083333,2047,1955,1987
5.104167,2047,1967,1967
5.125000,2047,1952,1986
5.145833,2047,1956,1989
5.166667,2047,1956,1988
5.187500,2047,1957,1988
5.208333,2047,1957,1989
5.229167,2047,1961,1991
5.250000,2047,1960,1991
5.270833,2047,1959,1991
5.291667,2047,1960,1990
5.312500,2047,1962,1990
5.333333,2047,1960,1990
5.354167,2047,1961,1992
5.375000,2047,1959,1989
5.395833,2047,1958,1988
5.416667,2047,1959,1989
5.437500,2047,1961,1992
5.458333,2047,1961,1991
5.479167,2047,1961,1992
5.500000,2047,1960,1987
5.520833,2047,1958,1985
5.541667,2047,1958,1984
5.562500,2047,1956,1967
5.583333,2047,1955,1967
5.604167,2047,1966,1961
5.625000,2047,1966,1964
5.645833,2047,1964,1963
5.666667,2047,1965,1961
5.687500,2047,1967,1963
5.708333,2047,1952,1963
5.729167,2047,1955,1965
5.750000,2047,1958,1967
5.770833,2047,1959,1967
5.791667,2047,1961,1966
5.812500,2047,1962,1967
5.833333,2047,1960,1967
5.854167,2047,1957,1963
5.875000,2047,1959,1965
5.895833,2047,1959,1967
5.916667,2047,1965,1985
5.937500,2047,1985,1987
5.958333,2047,1988,1993
5.979167,2047,1993,1997
6.000000,2047,1991,1993
6.020833,2047,1994,1997
6.041667,2047,1993,1998
6.062500,2047,1991,1996
6.083333,2047,1990,1995
6.104167,2047,1991,1999
6.125000,2047,1990,1997
6.145833,2047,1990,1999
6.166667,2047,1987,1998
6.187500,2047,1985,1997
6.208333,2047,1985,1998
6.229167,2047,1986,1999
6.250000,2047,1990,1986
6.270833,2047,1994,1989
6.291667,2047,1997,1991
6.312500,2047,1997,1992
6.333333,2047,1996,1993
6.354167,2047,1994,1990
6.375000,2047,1993,1990
6.395833,2047,1992,1989
6.416667,2047,1994,1987
6.437500,2047,1994,1986
6.458333,2047,1998,1989
6.479167,2047,1986,1993
6.500000,2047,1991,1994
6.520833,2047,1996,1996
6.541667,2047,1998,1998
6.562500,2047,2017,1999
6.583333,2047,2018,2016
6.604167,2047,2020,2018
6.625000,2047,2022,2018
6.645833,2047,2021,2016
6.666667,2047,2021,2018
6.687500,2047,2023,2018
6.708333,2047,2022,2016
6.729167,2047,2023,2017
6.750000,2047,2021,2016
6.770833,2047,2019,2016
6.791667,2047,2019,1999
6.812500,2047,2016,1995
6.833333,2047,1998,1996
6.854167,2047,1999,1998
6.875000,2047,1999,1998
6.895833,2047,2018,1998
6.916667,2047,2021,1999
6.937500,2047,2021,1999
6.958333,2047,2019,1997
6.979167,2047,2019,1997
7.000000,2047,2019,1997
7.020833,2047,1999,1992
7.041667,2047,1998,1993
7.062500,2047,1995,1989
7.083333,2047,1993,1989
7.104167,2047,1989,1985
7.125000,2047,1986,1999
7.145833,2047,1998,1996
7.166667,2047,1993,1994
7.187500,2047,1991,1993
7.208333,2047,1985,1985
7.229167,2047,1965,1965
7.250000,2047,1962,1965
7.270833,2047,1959,1960
7.291667,2047,1957,1959
7.312500,2047,1957,1960
7.333333,2047,1957,1960
7.354167,2047,1955,1961
7.375000,2047,1955,1961
7.395833,2047,1954,1962
7.416667,2047,1967,1958
7.437500,2047,1965,1959
7.458333,2047,1962,1957
7.479167,2047,1961,1957
7.500000,2047,1961,1958
7.520833,2047,1959,1957
7.541667,2047,1959,1954
7.562500,2047,1961,1959
7.583333,2047,1962,1961
7.604167,2047,1962,1961
7.625000,2047,1962,1963
7.645833,2047,1964,1967
7.666667,2047,1962,1963
7.687500,2767,1963,1964
7.708333,3385,1963,1964
7.729167,3813,1960,1960
7.750000,3988,1960,1961
7.770833,3888,1959,1959
7.791667,3525,1955,1959
7.812500,2952,2030,1991
7.833333,2250,2287,2049
7.854167,1519,2690,2188
7.875000,863,2979,2383
7.895833,375,2980,2539
7.916667,126,2855,2529
7.937500,150,1986,2222
7.958333,444,942,1710
7.979167,966,942,1070
8.000000,2047,942,960
8.020834,2047,942,960
8.041667,2047,942,943
8.062500,2047,942,960
8.083334,2047,1794,1287
8.104167,2047,2979,2189
8.125000,2047,2980,2990
8.145834,2047,2979,2991
8.166667,2047,2980,2991
8.187500,2047,2980,2991
8.208334,2047,2979,2991
8.229167,2047,2638,2990
8.250000,2047,942,2055
8.270834,2047,942,961
8.291667,2047,943,960
8.312500,2047,942,961
8.333334,2047,942,960
8.354167,2047,942,960
8.375000,2047,1635,1066
8.395834,2047,2979,1903
8.416667,2047,2980,2698
8.437500,2047,2979,2991
8.458334,2047,2980,2991
8.479167,2047,2980,2991
8.500000,2047,2980,2991
8.520834,2047,2980,2991
8.541667,2047,2980,2990
8.562500,2047,2980,2991
8.583334,2047,2446,2528
8.604167,2047,942,1668
8.625000,2047,942,943
8.645834,2047,942,960
8.666667,2047,942,961
8.687500,2047,942,960
8.708334,2047,1103,960
8.729167,2047,1990,1359
8.750000,2047,2670,1865
8.770834,2047,2920,2214
8.791667,2047,2980,2508
8.812500,2047,2980,2762
8.833334,2047,2980,2991
8.854167,2047,2979,2990
8.875000,2047,2980,2991
8.895834,2047,2980,2991
8.916667,2047,2977,2881
8.937500,2047,1856,2283
8.958334,2047,942,1472
8.979167,2047,943,961
9.000000,2047,943,961
9.020834,2047,943,961
9.041667,2047,942,943
9.062500,2047,1377,1198
9.083334,2047,2060,1610
9.104167,2047,2503,1989
9.125000,2047,2731,2317
9.145834,2047,2955,2532
9.166667,2047,2980,2732
9.187500,2047,2979,2883
9.208334,2047,2980,2954
9.229167,2047,2980,2923
9.250000,2047,2980,2753
9.270834,2047,2594,2444
9.291667,2047,1582,1987
9.312500,2047,942,1575
9.333334,2047,943,1228
9.354167,2047,942,1024
9.375000,2047,943,1003
9.395834,2047,1037,1188
9.416667,2047,1509,1447
9.437500,2047,1966,1736
9.458334,2047,2372,2026
9.479167,2047,2671,2240
9.500000,2047,2945,2437
9.520834,2047,2980,2574
9.541667,2047,2980,2636
9.562500,2047,2980,2664
9.583334,2047,2980,2605
9.604167,2047,2797,2447
9.625000,2047,2250,2211
9.645834,2047,1571,1957
9.666667,2047,1034,1636
9.687500,2047,942,1417
9.708334,2047,942,1259
9.729167,2047,942,1253
9.750000,2047,1156,1347
9.770834,2047,1543,1579
9.791667,2047,1959,1829
9.812500,2047,2383,2063
9.833334,2047,2697,2285
9.854167,2047,2915,2440
9.875000,2047,2980,2497
9.895834,2047,2979,2511
9.916667,2047,2915,2434
9.937500,2047,2695,2340
9.958334,2047,2372,2186
9.979167,2047,1964,2028
10.000000,2047,1609,1856
10.020834,2047,1314,1699
10.041667,2047,1135,1572
10.062500,2047,1098,1519
10.083334,2047,1221,1509
10.104167,2047,1441,1603
10.125000,2047,1772,1770
10.145834,2047,2112,1935
10.166667,2047,2408,2122
10.187500,2047,2634,2255
10.208334,2047,2734,2345
10.229167,2047,2729,2341
10.250000,2047,2624,2315
10.270834,2047,2471,2244
10.291667,2047,2281,2155
10.312500,2047,2086,2062
10.333334,2047,1839,1958
10.354167,2047,1640,1859
10.375000,2047,1483,1771
10.395834,2047,1413,1701
10.416667,2047,1409,1679
10.437500,2047,1542,1711
10.458334,2047,1734,1798
10.479167,2047,1999,1901
10.500000,2047,2241,2050
10.520834,2047,2434,2154
10.541667,2047,2499,2213
10.562500,2047,2501,2221
10.583334,2047,2404,2179
10.604167,2047,2287,2148
10.625000,2047,2184,2091
10.645834,2047,2061,2054
10.666667,2047,1964,2031
10.687500,2047,1859,1986
10.708334,2047,1761,1899
10.729167,2047,1668,1825
10.750000,2047,1601,1775
10.770834,2047,1602,1738
10.791667,2047,1645,1735
10.812500,2047,1794,1804
10.833334,2047,1962,1903
10.854167,2047,2191,2027
10.875000,2047,2339,2127
10.895834,2047,2413,2178
10.916667,2047,2403,2185
10.937500,2047,2306,2157
10.958334,2047,2184,2093
10.979167,2047,2055,2053
11.000000,2047,1923,1990
11.020834,2047,1833,1961
11.041667,2047,1774,1903
11.062500,2047,1731,1865
11.083334,2047,1707,1831
11.104167,2047,1729,1831
11.125000,2047,1767,1824
11.145834,2047,1826,1870
11.166667,2047,1927,1901
11.187500,2047,2054,1954
11.208334,2047,2147,2022
11.229167,2047,2221,2063
11.250000,2047,2213,2080
11.270834,2047,2183,2088
11.291667,2047,2144,2062
11.312500,2047,2062,2052
11.333334,2047,1994,2021
11.354167,2047,1933,1986
11.375000,2047,1857,1932
11.395834,2047,1799,1892
11.416667,2047,1771,1857
11.437500,2047,1740,1839
11.458334,2047,1761,1837
11.479167,2047,1832,1857
11.500000,2047,1899,1890
11.520834,2047,1986,1927
11.541667,2047,2081,1966
11.562500,2047,2125,1995
11.583334,2047,2144,2031
11.604167,2047,2118,2024
11.625000,2047,2061,2023
11.645834,2047,1998,2029
11.666667,2047,1958,1995
11.687500,2047,1923,1966
11.708334,2047,1901,1933
11.729167,2047,1866,1922
11.750000,2047,1832,1896
11.770834,2047,1793,1869
11.791667,2047,1807,1867
11.812500,2047,1828,1870
11.833334,2047,1862,1901
11.854167,2047,1935,1901
11.875000,2047,1991,1931
11.895834,2047,2016,1952
11.916667,2047,2059,1960
11.937500,2047,2083,1999
11.958334,2047,2061,2021
11.979167,2047,2049,2021
12.000000,2047,2025,2021
12.020834,2047,1997,2018
12.041667,2047,1963,1993
12.062500,2047,1922,1960
12.083334,2047,1866,1929
12.104167,2047,1836,1896
12.125000,2047,1838,1902
12.145834,2047,1831,1889
12.166667,2047,1856,1894
12.187500,2047,1896,1903
12.208334,2047,1953,1926
12.229167,2047,1988,1923
12.250000,2047,2016,1961
12.270834,2047,2019,1988
12.291667,2047,2029,2023
12.312500,2047,2051,2051
12.333334,2047,2059,2063
12.354167,2047,2019,2052
12.375000,2047,1990,2026
12.395834,2047,1958,1989
12.416667,2047,1923,1952
12.437500,2047,1893,1922
12.458334,2047,1871,1891
12.479167,2047,1861,1900
12.500000,2047,1862,1901
12.520834,2047,1862,1892
12.541667,2047,1890,1902
12.562500,2047,1923,1931
12.583334,2047,1959,1934
12.604167,2047,1992,1962
12.625000,2047,2030,1990
12.645834,2047,2025,2031
12.666667,2047,2025,2030
12.687500,2047,2027,2048
12.708334,2047,1990,2023
12.729167,2047,1965,2019
12.750000,2047,1957,1997
12.770834,2047,1932,1956
12.791667,2047,1897,1933
12.812500,2047,1899,1935
12.833334,2047,1890,1920
12.854167,2047,1889,1897
12.875000,2047,1899,1896
12.895834,2047,1924,1924
12.916667,2047,1954,1929
12.937500,2047,1991,1957
12.958334,2047,2025,1994
12.979167,2047,2030,2020
13.000000,2047,2057,2056
13.020834,2047,2063,2062
13.041667,2047,2025,2056
13.062500,2047,1999,2021
13.083334,2047,1962,2019
13.104167,2047,1960,1984
13.125000,2047,1929,1964
13.145834,2047,1921,1966
13.166667,2047,1928,1933
13.187500,2047,1903,1935
13.208334,2047,1901,1930
13.229167,2047,1926,1930
13.250000,2047,1930,1926
13.270834,2047,1962,1953
13.291667,2047,1993,1994
13.312500,2047,2021,2023
13.333334,2047,2055,2048
13.354167,2047,2058,2063
13.375000,2047,2048,2063
13.395834,2047,2051,2059
13.416667,2047,2017,2049
13.437500,2047,1985,2031
13.458334,2047,1985,1997
13.479167,2047,1952,1992
13.500000,2047,1935,1955
13.520834,2047,1934,1935
13.541667,2047,1927,1923
13.562500,2047,1933,1923
13.583334,2047,1933,1930
13.604167,2047,1958,1953
13.625000,2047,1984,1990
13.645834,2047,2017,1995
13.666667,2047,2022,2026
13.687500,2047,2020,2030
13.708334,2047,1999,2020
13.729167,2047,1993,2019
13.750000,2047,1993,2020
13.770834,2047,1995,2019
13.791667,2047,1996,2030
13.812500,2047,1988,2018
13.833334,2047,1989,1999
13.854167,2047,1965,1960
13.875000,2047,1923,1933
13.895834,2047,1923,1931
13.916667,2047,1920,1927
13.937500,2047,1931,1933
13.958334,2047,1955,1954
13.979167,2047,1963,1961
14.000000,2047,1998,1998
14.020834,2047,1993,2017
14.041667,2047,1997,2030
14.062500,2047,1995,2019
14.083334,2047,1995,2018
14.104167,2047,1993,2029
14.125000,2047,1991,2021
14.145834,2047,1986,1993
14.166667,2047,1990,1993
14.187500,2047,1954,1958
14.208334,2047,1935,1955
14.229167,2047,1924,1929
14.250000,2047,1922,1921
14.270834,2047,1933,1927
14.291667,2047,1967,1955
14.312500,2047,1987,1959
14.333334,2047,1987,1996
14.354167,2047,1994,1996
14.375000,2047,1995,2024
14.395834,2047,1989,2027
14.416667,2047,1984,2026
14.437500,2047,1984,2025
14.458334,2047,1998,2019
14.479167,2047,1994,1993
14.500000,2047,1985,1995
14.520834,2047,1967,1963
14.541667,2047,1930,1959
14.562500,2047,1930,1929
14.583334,2047,1929,1924
14.604167,2047,1922,1927
14.625000,2047,1959,1955
14.645834,2047,1967,1959
14.666667,2047,1984,1991
14.687500,2047,1989,1985
14.708334,2047,1996,1988
14.729167,2047,1967,1987
14.750000,2047,1953,1999
14.770834,2047,1961,1991
14.791667,2047,1959,1984
14.812500,2047,1959,1962
14.833334,2047,1958,1957
14.854167,2047,1935,1964
14.875000,2047,1922,1955
14.895834,2047,1923,1927
14.916667,2047,1900,1920
14.937500,2047,1901,1920
14.958334,2047,1928,1929
14.979167,2047,1928,1955
15.000000,2047,1963,1955
15.020834,2047,1960,1985
15.041667,2047,1965,1995
15.062500,2047,1967,1985
15.083334,2047,1966,1988
15.104167,2047,1961,1986
15.125000,2047,1957,1997
15.145834,2047,1955,1991
15.166667,2047,1964,1965
15.187500,2047,1957,1958
15.208334,2047,1935,1967
15.229167,2047,1928,1963
15.250000,2047,1926,1959
15.270834,2047,1930,1962
15.291667,2047,1955,1967
15.312500,2047,1966,1958
15.333334,2047,1962,1964
15.354167,2047,1985,1988
15.375000,2047,1989,1996
15.395834,2047,1992,1986
15.416667,2047,1991,1990
15.437500,2047,1989,1991
15.458334,2047,1986,1988
15.479167,2047,1964,1996
15.500000,2047,1957,1984
15.520834,2047,1965,1957
15.541667,2047,1955,1964
15.562500,2047,1929,1955
15.583334,2047,1923,1953
15.604167,2047,1935,1935
15.625000,2047,1924,1956
15.645834,2047,1952,1965
15.666667,2047,1952,1959
15.687500,2047,1967,1987
15.708334,2047,1999,1984
15.729167,2047,1992,1998
15.750000,2047,1995,2022
15.770834,2047,1992,2025
15.791667,2047,1985,2023
15.812500,2047,1993,2017
15.833334,2047,1967,1991
15.854167,2047,1961,1995
15.875000,2047,1956,1984
15.895834,2047,1952,1963
15.916667,2047,1964,1958
15.937500,2047,1961,1957
15.958334,2047,1958,1956
15.979167,2047,1956,1957
16.000000,2047,1963,1959
16.020834,2047,1957,1967
16.041668,2047,1985,1991
16.062500,2047,1997,1985
16.083334,2047,1992,1996
16.104168,2047,1998,2017
16.125000,2047,1999,2024
16.145834,2047,1991,2022
16.166668,2047,1994,1998
16.187500,2047,1967,1984
16.208334,2047,1956,1986
16.229168,2047,1964,1960
16.250000,2047,1958,1953
16.270834,2047,1955,1964
16.291668,2047,1953,1963
16.312500,2047,1935,1962
16.333334,2047,1954,1967
16.354168,2047,1958,1955
16.375000,2047,1964,1959
16.395834,2047,1953,1964
16.416668,2047,1958,1984
16.437500,2047,1965,1992
16.458334,2047,1967,1998
16.479168,2047,1984,1985
16.500000,2047,1964,1999
16.520834,2047,1960,1997
16.541668,2047,1954,1991
16.562500,2047,1963,1963
16.583334,2047,1956,1952
16.604168,2047,1952,1960
16.625000,2047,1935,1958
16.645834,2047,1935,1957
16.666668,2047,1935,1959
16.687500,2047,1952,1961
16.708334,2047,1956,1965
16.729168,2047,1963,1954
16.750000,2047,1955,1959
16.770834,2047,1960,1965
16.791668,2047,1963,1967
16.812500,2047,1960,1967
16.833334,2047,1957,1984
16.854168,2047,1952,1984
16.875000,2047,1962,1962
16.895834,2047,1957,1953
16.916668,2047,1956,1965
16.937500,2047,1955,1962
16.958334,2047,1954,1961
16.979168,2047,1955,1963
17.000000,2047,1961,1955
17.020834,2047,1952,1962
17.041668,2047,1961,1989
17.062500,2047,1986,1996
17.083334,2047,1994,1988
17.104168,2047,1999,1991
17.125000,2047,1985,1991
17.145834,2047,1985,1994
17.166668,2047,1997,1992
17.187500,2047,1990,1989
17.208334,2047,1967,1984
17.229168,2047,1963,1995
17.250000,2047,1961,1990
17.270834,2047,1960,1967
17.291668,2047,1957,1963
17.312500,2047,1956,1960
17.333334,2047,1956,1961
17.354168,2047,1952,1960
17.375000,2047,1965,1959
17.395834,2047,1962,1959
17.416668,2047,1960,1957
17.437500,2047,1963,1959
17.458334,2047,1967,1963
17.479168,2047,1956,1965
17.500000,2047,1956,1967
17.520834,2047,1954,1967
17.541668,2047,1966,1967
17.562500,2047,1961,1967
17.583334,2047,1959,1963
17.604168,2047,1958,1961
17.625000,2047,1959,1959
17.645834,2047,1959,1957
17.666668,2047,1960,1958
17.687500,2047,1962,1961
17.708334,2047,1962,1963
17.729168,2047,1965,1967
17.750000,2047,1967,1985
17.770834,2047,1955,1989
17.791668,2047,1959,1992
17.812500,2047,1963,1996
17.833334,2047,1962,1992
17.854168,2047,1963,1993
17.875000,2047,1961,1990
17.895834,2047,1957,1985
17.916668,2047,1958,1984
17.937500,2047,1956,1984
17.958334,2047,1956,1965
17.979168,2047,1963,1967
18.000000,2047,1965,1965
18.020834,2047,1967,1965
18.041668,2047,1963,1964
18.062500,2047,1963,1967
18.083334,2047,1955,1966
18.104168,2047,1955,1966
18.125000,2047,1955,1967
18.145834,2047,1955,1967
18.166668,2047,1955,1967
18.187500,2047,1956,1987
18.208334,2047,1958,1986
18.229168,2047,1957,1986
18.250000,2047,1959,1990
18.270834,2047,1961,1993
18.291668,2047,1960,1991
18.312500,2047,1963,1990
18.333334,2047,1966,1990
18.354168,2047,1962,1989
18.375000,2047,1961,1967
18.395834,2047,1960,1984
18.416668,2047,1960,1986
18.437500,2047,1957,1985
18.458334,2047,1959,1991
18.479168,2047,1963,1997
18.500000,2047,1963,1998
18.520834,2047,1965,1997
18.541668,2047,1967,1999
18.562500,2047,1965,1999
18.583334,2047,1959,1989
18.604168,2047,1957,1989
18.625000,2047,1956,1984
18.645834,2047,1959,1985
18.666668,2047,1959,1967
18.687500,2047,1962,1986
18.708334,2047,1984,1991
18.729168,2047,1988,1994
18.750000,2047,1988,1992
18.770834,2047,1989,1995
18.791668,2047,1987,1995
18.812500,2047,1988,1996
18.833334,2047,1989,1998
18.854168,2047,1993,1999
18.875000,2047,1995,1985
18.895834,2047,1985,1991
18.916668,2047,1985,1989
18.937500,2047,1986,1990
18.958334,2047,1988,1991
18.979168,2047,1988,1992
19.000000,2047,1989,1992
19.020834,2047,1989,1992
19.041668,2047,1987,1990
19.062500,2047,1984,1990
19.083334,2047,1994,1999
19.104168,2047,1993,1998
19.125000,2047,1991,1993
19.145834,2047,1992,1995
19.166668,2047,1990,1993
19.187500,2047,1992,1995
19.208334,2047,1992,1996
19.229168,2047,1994,1998
19.250000,2047,1992,1996
19.270834,2047,1990,1999
19.291668,2047,1987,1994
19.312500,2047,1986,1993
19.333334,2047,1966,1989
19.354168,2047,1967,1986
19.375000,2047,1966,1984
19.395834,2047,1966,1967
19.416668,2047,1964,1967
19.437500,2047,1962,1967
19.458334,2047,1962,1965
19.479168,2047,1960,1967
19.500000,2047,1959,1985
19.520834,2047,1955,1962
19.541668,2047,1959,1967
19.562500,2047,1960,1967
19.583334,2047,1961,1987
19.604168,2047,1959,1987
19.625000,2047,1959,1967
19.645834,2047,1960,1967
19.666668,2047,1959,1967
19.687500,2047,1959,1967
19.708334,2047,1959,1965
19.729168,2047,1959,1967
19.750000,2047,1959,1966
19.770834,2047,1956,1965
19.791668,2047,1956,1963
19.812500,2047,1953,1962
19.833334,2047,1954,1962
19.854168,2047,1966,1962
19.875000,2047,1964,1962
19.895834,2047,1961,1960
19.916668,2047,1957,1957
19.937500,2047,1956,1955
19.958334,2047,1934,1952
19.979168,2047,1931,1965
20.000000,2047,1928,1965
20.020834,2047,1923,1959
20.041668,2047,1920,1954
20.062500,2047,1932,1934
20.083334,2047,1933,1935
20.104168,2047,1934,1935
20.125000,2047,1934,1952
20.145834,2047,1935,1953
20.166668,2047,1923,1955
20.187500,2047,1923,1955
20.208334,2047,1928,1960
20.229168,2047,1929,1960
20.250000,2047,1931,1961
20.270834,2047,1932,1963
20.291668,2047,1931,1963
20.312500,2047,1935,1966
20.333334,2047,1953,1967
20.354168,2047,1957,1953
20.375000,2047,1960,1954
20.395834,2047,1964,1960
20.416668,2047,1963,1957
20.437500,2047,1964,1959
20.458334,2047,1961,1958
20.479168,2047,1958,1956
20.500000,2047,1957,1955
20.520834,2047,1955,1954
20.541668,2047,1955,1967
20.562500,2047,1955,1966
20.583334,2047,1958,1953
20.604168,2047,1960,1955
20.625000,2047,1959,1956
20.645834,2047,1964,1959
20.666668,2047,1966,1966
20.687500,2047,1954,1985
20.708334,2047,1955,1987
20.729168,2047,1960,1990
20.750000,2047,1960,1988
20.770834,2047,1959,1985
20.791668,2047,1960,1985
20.812500,2047,1955,1963
20.833334,2047,1957,1965
20.854168,2047,1955,1964
20.875000,2047,1959,1966
20.895834,2047,1960,1965
20.916668,2047,1965,1985
20.937500,2047,1962,1965
20.958334,2047,1962,1967
20.979168,2047,1955,1986
21.000000,2047,1967,1967
21.020834,2047,1967,1984
21.041668,2047,1953,1985
21.062500,2047,1956,1967
21.083334,2047,1961,1986
21.104168,2047,1962,1986
21.125000,2047,1963,1986
21.145834,2047,1964,1987
21.166668,2047,1963,1985
21.187500,2047,1963,1987
21.208334,2047,1963,1989
21.229168,2047,1963,1991
21.250000,2047,1962,1987
21.270834,2047,1965,1990
21.291668,2047,1966,1991
21.312500,2047,1967,1991
21.333334,2047,1984,1994
21.354168,2047,1986,1996
21.375000,2047,1990,1999
21.395834,2047,1992,1984
21.416668,2047,1993,1984
21.437500,2047,1995,1987
21.458334,2047,1993,1984
21.479168,2047,1991,1998
21.500000,2047,1991,1998
21.520834,2047,1991,1999
21.541668,2047,1993,1985
21.562500,2047,1994,1985
21.583334,2047,1994,1987
21.604168,2047,1995,1988
21.625000,2047,1997,1987
21.645834,2047,1997,1985
21.666668,2047,1999,1987
21.687500,2047,1987,1990
21.708334,2047,1989,1991
21.729168,2047,1990,1992
21.750000,2047,1991,1991
21.770834,2047,1990,1991
21.791668,2047,1986,1989
21.812500,2047,1995,1999
21.833334,2047,1989,1994
21.854168,2047,1985,1991
21.875000,2047,1965,1987
21.895834,2047,1964,1988
21.916668,2047,1962,1985
21.937500,2047,1962,1985
21.958334,2047,1963,1967
21.979168,2047,1964,1986
22.000000,2047,1967,1989
22.020834,2047,1985,1991
22.041668,2047,1988,1994
22.062500,2047,1988,1993
22.083334,2047,1990,1998
22.104168,2047,1993,1985
22.125000,2047,1993,1985
22.145834,2047,1991,1999
22.166668,2047,1991,1997
22.187500,2047,1991,1997
22.208334,2047,1993,1999
22.229168,2047,1993,1998
22.250000,2047,1991,1995
22.270834,2047,1991,1993
22.291668,2047,1989,1993
22.312500,2047,1989,1995
22.333334,2047,1967,1992
22.354168,2047,1965,1989
22.375000,2047,1964,1988
22.395834,2047,1962,1987
22.416668,2047,1962,1986
22.437500,2047,1959,1967
22.458334,2047,1957,1966
22.479168,2047,1958,1967
22.500000,2047,1959,1967
22.520834,2047,1959,1966
22.541668,2047,1959,1967
22.562500,2047,1958,1967
22.583334,2047,1957,1967
22.604168,2047,1959,1987
22.625000,2047,1962,1989
22.645834,2047,1963,1992
22.666668,2047,1965,1993
22.687500,2047,1965,1994
22.708334,2047,1963,1994
22.729168,2047,1960,1991
22.750000,2047,1957,1989
22.770834,2047,1955,1987
22.791668,2047,1955,1967
22.812500,2047,1955,1967
22.833334,2047,1957,1966
22.854168,2047,1957,1966
22.875000,2047,1957,1965
22.895834,2047,1956,1963
22.916668,2047,1957,1965
22.937500,2047,1957,1967
22.958334,2047,1955,1966
22.979168,2047,1956,1966
23.000000,2047,1957,1967
23.020834,2767,1959,1985
23.041668,3385,1959,1986
23.062500,3813,1960,1985
23.083334,3988,1959,1985
23.104168,3888,1959,1986
23.125000,3525,1989,1989
23.145834,2952,2089,1990
23.166668,2250,2317,2050
23.187500,1519,2724,2216
23.208334,863,2980,2414
23.229168,375,2980,2562
23.250000,126,2853,2542
23.270834,150,1954,2251
23.291668,444,942,1700
23.312500,966,943,1089
23.333334,2047,942,960
23.354168,2047,942,961
23.375000,2047,942,960
23.395834,2047,942,960
23.416668,2047,1828,1263
23.437500,2047,2980,2156
23.458334,2047,2980,2991
23.479168,2047,2979,2990
23.500000,2047,2980,2991
23.520834,2047,2980,2990
23.541668,2047,2981,2990
23.562500,2047,2603,2991
23.583334,2047,943,2063
23.604168,2047,943,960
23.625000,2047,943,960
23.645834,2047,943,960
23.666668,2047,943,960
23.687500,2047,942,960
23.708334,2047,1634,1028
23.729168,2047,2980,1934
23.750000,2047,2981,2662
23.770834,2047,2980,2991
23.791668,2047,2980,2991
23.812500,2047,2980,2991
23.833334,2047,2980,2991
23.854168,2047,2980,2990
23.875000,2047,2980,2991
23.895834,2047,2980,2990
23.916668,2047,2434,2543
23.937500,2047,942,1637
23.958334,2047,943,960
23.979168,2047,943,943
24.000000,2047,943,943
24.020834,2047,942,961
24.041668,2047,1095,961
24.062500,2047,1994,1378
24.083334,2047,2695,1867
24.104168,2047,2956,2241
24.125000,2047,2980,2533
24.145834,2047,2980,2765
24.166668,2047,2980,2991
24.187500,2047,2980,2991
24.208334,2047,2980,2991
24.229168,2047,2980,2991
24.250000,2047,2977,2889
24.270834,2047,1837,2245
24.291668,2047,943,1507
24.312500,2047,943,961
24.333334,2047,943,961
24.354168,2047,943,961
24.375000,2047,943,960
24.395834,2047,1382,1163
24.416668,2047,2081,1578
24.437500,2047,2502,1999
24.458334,2047,2735,2308
24.479168,2047,2982,2531
24.500000,2047,2980,2734
24.520834,2047,2980,2894
24.541668,2047,2981,2957
24.562500,2047,2980,2925
24.583334,2047,2980,2760
24.604168,2047,2593,2440
24.625000,2047,1575,2025
24.645834,2047,943,1547
24.666668,2047,943,1217
24.687500,2047,942,1004
24.708334,2047,943,1003
24.729168,2047,1033,1162
24.750000,2047,1483,1415
24.770834,2047,1967,1741
24.791668,2047,2337,1995
24.812500,2047,2633,2253
24.833334,2047,2912,2415
24.854168,2047,2980,2543
24.875000,2047,2980,2639
24.895834,2047,2980,2634
24.916668,2047,2980,2574
24.937500,2047,2786,2441
24.958334,2047,2213,2222
24.979168,2047,1548,1935
25.000000,2047,999,1637
25.020834,2047,942,1415
25.041668,2047,943,1251
25.062500,2047,943,1251
25.083334,2047,1154,1356
25.104168,2047,1545,1575
25.125000,2047,1965,1807
25.145834,2047,2371,2086
25.166668,2047,2694,2274
25.187500,2047,2894,2413
25.208334,2047,2980,2499
25.229168,2047,2980,2478
25.250000,2047,2882,2415
25.270834,2047,2669,2305
25.291668,2047,2344,2181
25.312500,2047,1953,2017
25.333334,2047,1573,1836
25.354168,2047,1280,1679
25.375000,2047,1100,1546
25.395834,2047,1064,1479
25.416668,2047,1189,1504
25.437500,2047,1410,1578
25.458334,2047,1730,1728
25.479168,2047,2087,1922
25.500000,2047,2382,2095
25.520834,2047,2594,2255
25.541668,2047,2695,2314
25.562500,2047,2693,2346
25.583334,2047,2624,2307
25.604168,2047,2473,2221
25.625000,2047,2286,2149
25.645834,2047,2061,2048
25.666668,2047,1831,1952
25.687500,2047,1645,1831
25.708334,2047,1484,1740
25.729168,2047,1379,1676
25.750000,2047,1388,1665
25.770834,2047,1508,1700
25.791668,2047,1708,1761
25.812500,2047,1957,1903
25.833334,2047,2214,2026
25.854168,2047,2409,2117
25.875000,2047,2477,2187
25.895834,2047,2469,2182
25.916668,2047,2405,2156
25.937500,2047,2275,2117
25.958334,2047,2155,2094
25.979168,2047,2048,2059
26.000000,2047,1934,2022
26.020834,2047,1859,1959
26.041668,2047,1765,1899
26.062500,2047,1675,1825
26.083334,2047,1613,1762
26.104168,2047,1601,1742
26.125000,2047,1666,1741
26.145834,2047,1804,1826
26.166668,2047,1988,1922
26.187500,2047,2182,2025
26.208334,2047,2346,2126
26.229168,2047,2405,2177
26.250000,2047,2410,2190
26.270834,2047,2314,2144
26.291668,2047,2213,2114
26.312500,2047,2087,2063
26.333334,2047,1955,2017
26.354168,2047,1867,1955
26.375000,2047,1807,1933
26.395834,2047,1767,1893
26.416668,2047,1733,1865
26.437500,2047,1740,1835
26.458334,2047,1795,1860
26.479168,2047,1870,1888
26.500000,2047,1953,1932
26.520834,2047,2083,1990
26.541668,2047,2181,2029
26.562500,2047,2254,2086
26.583334,2047,2250,2093
26.604168,2047,2220,2112
26.625000,2047,2180,2086
26.645834,2047,2113,2081
26.666668,2047,2051,2052
26.687500,2047,1955,2020
26.708334,2047,1899,1967
26.729168,2047,1860,1929
26.750000,2047,1802,1899
26.770834,2047,1801,1889
26.791668,2047,1799,1890
26.812500,2047,1866,1901
26.833334,2047,1930,1925
26.854168,2047,2018,1967
26.875000,2047,2114,1986
26.895834,2047,2179,2022
26.916668,2047,2191,2061
26.937500,2047,2153,2061
26.958334,2047,2114,2061
26.979168,2047,2088,2055
27.000000,2047,2031,2050
27.020834,2047,1988,2021
27.041668,2047,1934,1989
27.062500,2047,1891,1955
27.083334,2047,1868,1928
27.104168,2047,1838,1895
27.125000,2047,1830,1903
27.145834,2047,1833,1892
27.166668,2047,1893,1921
27.187500,2047,1933,1921
27.208334,2047,1989,1953
27.229168,2047,2053,1959
27.250000,2047,2094,1996
27.270834,2047,2085,2023
27.291668,2047,2094,2026
27.312500,2047,2082,2056
27.333334,2047,2063,2059
27.354168,2047,1999,2027
27.375000,2047,1963,1999
27.395834,2047,1923,1963
27.416668,2047,1898,1932
27.437500,2047,1866,1927
27.458334,2047,1837,1903
27.479168,2047,1857,1899
27.500000,2047,1869,1922
27.520834,2047,1902,1924
27.541668,2047,1955,1929
27.562500,2047,1988,1924
27.583334,2047,1997,1956
27.604168,2047,2016,1988
27.625000,2047,2029,2021
27.645834,2047,2052,2050
27.666668,2047,2053,2054
27.687500,2047,2057,2051
27.708334,2047,2017,2031
27.729168,2047,1988,1996
27.750000,2047,1952,1960
27.770834,2047,1901,1927
27.791668,2047,1868,1920
27.812500,2047,1862,1892
27.833334,2047,1857,1902
27.854168,2047,1867,1888
27.875000,2047,1898,1899
27.895834,2047,1933,1929
27.916668,2047,1961,1935
27.937500,2047,2019,1967
27.958334,2047,2053,1999
27.979168,2047,2087,2027
28.000000,2047,2084,2061
28.020834,2047,2055,2048
28.041668,2047,2025,2051
28.062500,2047,1992,2027
28.083334,2047,1961,1984
28.104168,2047,1934,1957
28.125000,2047,1893,1931
28.145834,2047,1893,1929
28.166668,2047,1869,1901
28.187500,2047,1871,1896
28.208334,2047,1903,1896
28.229168,2047,1920,1930
28.250000,2047,1961,1959
28.270834,2047,2018,1994
28.291668,2047,2057,2026
28.312500,2047,2094,2056
28.333334,2047,2093,2050
28.354168,2047,2059,2054
28.375000,2047,2025,2053
28.395834,2047,1993,2031
28.416668,2047,1967,1992
28.437500,2047,1926,1963
28.458334,2047,1925,1958
28.479168,2047,1896,1922
28.500000,2047,1898,1902
28.520834,2047,1871,1901
28.541668,2047,1888,1900
28.562500,2047,1899,1893
28.583334,2047,1922,1924
28.604168,2047,1953,1952
28.625000,2047,1988,1967
28.645834,2047,1997,1996
28.666668,2047,2028,2018
28.687500,2047,2031,2026
28.708334,2047,2025,2031
28.729168,2047,1999,2027
28.750000,2047,1985,2029
28.770834,2047,1985,1998
28.791668,2047,1965,1991
28.812500,2047,1925,1966
28.833334,2047,1899,1921
28.854168,2047,1894,1900
28.875000,2047,1871,1891
28.895834,2047,1892,1894
28.916668,2047,1901,1925
28.937500,2047,1935,1935
28.958334,2047,1986,1964
28.979168,2047,1994,1988
29.000000,2047,2019,2019
29.020834,2047,1999,2029
29.041668,2047,1987,2025
29.062500,2047,1990,2019
29.083334,2047,1967,2017
29.104168,2047,1959,1993
29.125000,2047,1956,1986
29.145834,2047,1965,1990
29.166668,2047,1934,1957
29.187500,2047,1925,1931
29.208334,2047,1903,1923
29.229168,2047,1897,1895
29.250000,2047,1889,1898
29.270834,2047,1928,1928
29.291668,2047,1957,1935
29.312500,2047,1966,1959
29.333334,2047,1999,1998
29.354168,2047,1999,1994
29.375000,2047,1989,2017
29.395834,2047,1964,2016
29.416668,2047,1958,1999
29.437500,2047,1957,1991
29.458334,2047,1958,1996
29.479168,2047,1958,1990
29.500000,2047,1964,1960
29.520834,2047,1928,1953
29.541668,2047,1924,1935
29.562500,2047,1894,1923
29.583334,2047,1892,1923
29.604168,2047,1901,1927
29.625000,2047,1935,1924
29.645834,2047,1959,1961
29.666668,2047,1962,1984
29.687500,2047,1992,1986
29.708334,2047,1991,1993
29.729168,2047,1984,1998
29.750000,2047,1962,1992
29.770834,2047,1960,1989
29.791668,2047,1961,1986
29.812500,2047,1955,1993
29.833334,2047,1957,1964
29.854168,2047,1923,1963
29.875000,2047,1923,1932
29.895834,2047,1898,1923
29.916668,2047,1903,1921
29.937500,2047,1923,1929
29.958334,2047,1967,1965
29.979168,2047,1993,1984
30.000000,2047,1998,1988
30.020834,2047,2020,2017
30.041668,2047,1996,2021
30.062500,2047,1999,2021
30.083334,2047,1967,1998
30.104168,2047,1959,1992
30.125000,2047,1958,1999
30.145834,2047,1962,1996
30.166668,2047,1963,1992
30.187500,2047,1957,1967
30.208334,2047,1962,1959
30.229168,2047,1934,1959
30.250000,2047,1929,1957
30.270834,2047,1934,1962
30.291668,2047,1963,1955
30.312500,2047,1967,1985
30.333334,2047,1987,1999
30.354168,2047,2018,2016
30.375000,2047,2021,2023
30.395834,2047,2017,2029
30.416668,2047,1993,2027
30.437500,2047,1997,2018
30.458334,2047,1986,1989
30.479168,2047,1963,1995
30.500000,2047,1955,1964
30.520834,2047,1959,1953
30.541668,2047,1930,1958
30.562500,2047,1922,1953
30.583334,2047,1933,1935
30.604168,2047,1921,1956
30.625000,2047,1935,1964
30.645834,2047,1966,1958
30.666668,2047,1966,1966
30.687500,2047,1995,1996
30.708334,2047,1987,1991
30.729168,2047,1987,1999
30.750000,2047,1999,2017
30.770834,2047,1997,2019
30.791668,2047,1995,1999
30.812500,2047,1995,1992
30.833334,2047,1991,1984
30.854168,2047,1967,1988
30.875000,2047,1954,1963
30.895834,2047,1954,1965
30.916668,2047,1926,1959
30.937500,2047,1935,1954
30.958334,2047,1920,1935
30.979168,2047,1931,1959
31.000000,2047,1964,1955
31.020834,2047,1963,1965
31.041668,2047,1994,1996
31.062500,2047,1986,1989
31.083334,2047,1992,2019
31.104168,2047,1993,2025
31.125000,2047,1990,2027
31.145834,2047,1984,2020
31.166668,2047,1990,1991
31.187500,2047,1963,1994
31.208334,2047,1967,1962
31.229168,2047,1956,1964
31.250000,2047,1930,1953
31.270834,2047,1925,1935
31.291668,2047,1935,1933
31.312500,2047,1920,1934
31.333334,2047,1925,1956
31.354168,2047,1934,1963
31.375000,2047,1964,1958
31.395834,2047,1964,1989
31.416668,2047,1992,1985
31.437500,2047,1999,1994
31.458334,2047,1985,1999
31.479168,2047,1996,1996
31.500000,2047,1988,1989
31.520834,2047,1963,1994
31.541668,2047,1954,1967
31.562500,2047,1966,1957
31.583334,2047,1960,1953
31.604168,2047,1955,1965
31.625000,2047,1935,1963
31.645834,2047,1934,1963
31.666668,2047,1953,1964
31.687500,2047,1959,1954
31.708334,2047,1967,1963
31.729168,2047,1964,1990
31.750000,2047,1992,1999
31.770834,2047,1984,1993
31.791668,2047,1986,1997
31.812500,2047,1999,1997
31.833334,2047,1988,1991
31.854168,2047,1962,1998
31.875000,2047,1967,1987
31.895834,2047,1957,1960
31.916668,2047,1935,1967
31.937500,2047,1931,1958
31.958334,2047,1930,1957
31.979168,2047,1932,1961
32.000000,2047,1953,1952
32.020836,2047,1959,1958
32.041668,2047,1955,1988
32.062500,2047,1963,1992
32.083336,2047,1989,1999
32.104168,2047,1996,1990
32.125000,2047,1999,1991
32.145836,2047,1996,1988
32.166668,2047,1994,1988
32.187500,2047,1967,1997
32.208336,2047,1960,1991
32.229168,2047,1952,1966
32.250000,2047,1962,1956
32.270836,2047,1959,1952
32.291668,2047,1959,1967
32.312500,2047,1958,1967
32.333336,2047,1958,1954
32.354168,2047,1962,1959
32.375000,2047,1964,1964
32.395836,2047,1954,1985
32.416668,2047,1959,1987
32.437500,2047,1967,1992
32.458336,2047,1990,1997
32.479168,2047,1994,1986
32.500000,2047,1993,1987
32.520836,2047,1986,1985
32.541668,2047,1963,1996
32.562500,2047,1967,1987
32.583336,2047,1961,1964
32.604168,2047,1958,1959
32.625000,2047,1958,1955
32.645836,2047,1965,1957
32.666668,2047,1954,1959
32.687500,2047,1958,1963
32.708336,2047,1961,1967
32.729168,2047,1967,1989
32.750000,2047,1986,1995
32.770836,2047,1986,1997
32.791668,2047,1988,1998
32.812500,2047,1987,1999
32.833336,2047,1966,1997
32.854168,2047,1959,1991
32.875000,2047,1954,1989
32.895836,2047,1963,1967
32.916668,2047,1960,1961
32.937500,2047,1962,1960
32.958336,2047,1966,1959
32.979168,2047,1955,1960
33.000000,2047,1959,1963
33.020836,2047,1963,1965
33.041668,2047,1963,1967
33.062500,2047,1962,1986
33.083336,2047,1958,1986
33.104168,2047,1958,1989
33.125000,2047,1957,1989
33.145836,2047,1958,1992
33.166668,2047,1958,1989
33.187500,2047,1956,1985
33.208336,2047,1954,1984
33.229168,2047,1953,1967
33.250000,2047,1952,1967
33.270836,2047,1954,1966
33.291668,2047,1957,1966
33.312500,2047,1958,1964
33.333336,2047,1961,1964
33.354168,2047,1959,1963
33.375000,2047,1956,1959
33.395836,2047,1954,1959
33.416668,2047,1967,1960
33.437500,2047,1965,1960
33.458336,2047,1953,1965
33.479168,2047,1957,1967
33.500000,2047,1961,1987
33.520836,2047,1963,1988
33.541668,2047,1962,1991
33.562500,2047,1959,1989
33.583336,2047,1955,1987
33.604168,2047,1967,1984
33.625000,2047,1967,1966
33.645836,2047,1954,1964
33.666668,2047,1955,1962
33.687500,2047,1956,1961
33.708336,2047,1959,1963
33.729168,2047,1960,1965
33.750000,2047,1958,1965
33.770836,2047,1957,1967
33.791668,2047,1957,1987
33.812500,2047,1959,1990
33.833336,2047,1959,1991
33.854168,2047,1963,1992
33.875000,2047,1967,1993
33.895836,2047,1986,1997
33.916668,2047,1987,1998
33.937500,2047,1985,1997
33.958336,2047,1984,1995
33.979168,2047,1967,1994
34.000000,2047,1967,1993
34.020836,2047,1966,1990
34.041668,2047,1966,1989
34.062500,2047,1965,1988
34.083336,2047,1963,1986
34.104168,2047,1960,1987
34.125000,2047,1958,1986
34.145836,2047,1955,1985
34.166668,2047,1954,1984
34.187500,2047,1956,1985
34.208336,2047,1956,1987
34.229168,2047,1954,1986
34.250000,2047,1954,1987
34.270836,2047,1967,1984
34.291668,2047,1953,1967
34.312500,2047,1953,1966
34.333336,2047,1953,1964
34.354168,2047,1954,1964
34.375000,2047,1955,1963
34.395836,2047,1965,1961
34.416668,2047,1961,1959
34.437500,2047,1958,1959
34.458336,2047,1959,1957
34.479168,2047,1961,1956
34.500000,2047,1963,1956
34.520836,2047,1964,1957
34.541668,2047,1964,1957
34.562500,2047,1963,1959
34.583336,2047,1960,1959
34.604168,2047,1957,1956
34.625000,2047,1953,1956
34.645836,2047,1935,1967
34.666668,2047,1952,1967
34.687500,2047,1934,1964
34.708336,2047,1952,1965
34.729168,2047,1935,1967
34.750000,2047,1935,1965
34.770836,2047,1934,1966
34.791668,2047,1935,1965
34.812500,2047,1954,1967
34.833336,2047,1957,1955
34.854168,2047,1958,1953
34.875000,2047,1957,1953
34.895836,2047,1957,1956
34.916668,2047,1954,1955
34.937500,2047,1956,1959
34.958336,2047,1955,1958
34.979168,2047,1955,1958
35.000000,2047,1957,1957
35.020836,2047,1957,1957
35.041668,2047,1955,1955
35.062500,2047,1953,1953
35.083336,2047,1935,1966
35.104168,2047,1930,1961
35.125000,2047,1931,1961
35.145836,2047,1933,1965
35.166668,2047,1953,1966
35.187500,2047,1954,1966
35.208336,2047,1955,1966
35.229168,2047,1955,1967
35.250000,2047,1955,1953
35.270836,2047,1955,1952
35.291668,2047,1954,1967
35.312500,2047,1954,1954
35.333336,2047,1953,1953
35.354168,2047,1952,1967
35.375000,2047,1935,1966
35.395836,2047,1954,1966
35.416668,2047,1956,1965
35.437500,2047,1960,1955
35.458336,2047,1963,1957
35.479168,2047,1964,1959
35.500000,2047,1967,1961
35.520836,2047,1952,1961
35.541668,2047,1953,1963
35.562500,2047,1967,1963
35.583336,2047,1966,1963
35.604168,2047,1965,1959
35.625000,2047,1963,1960
35.645836,2047,1966,1960
35.666668,2047,1954,1966
35.687500,2047,1958,1967
35.708336,2047,1961,1967
35.729168,2047,1964,1986
35.750000,2047,1963,1986
35.770836,2047,1963,1987
35.791668,2047,1962,1986
35.812500,2047,1962,1990
35.833336,2047,1963,1990
35.854168,2047,1967,1990
35.875000,2047,1987,1993
35.895836,2047,1989,1992
35.916668,2047,1990,1992
35.937500,2047,1988,1994
35.958336,2047,1987,1994
35.979168,2047,1987,1993
36.000000,2047,1989,1996
36.020836,2047,1987,1996
36.041668,2047,1988,1997
36.062500,2047,1990,1998
36.083336,2047,1989,1996
36.104168,2047,1986,1993
36.125000,2047,1967,1994
36.145836,2047,1962,1989
36.166668,2047,1961,1990
36.187500,2047,1960,1989
36.208336,2047,1962,1988
36.229168,2047,1965,1992
36.250000,2047,1987,1993
36.270836,2047,1989,1994
36.291668,2047,1989,1995
36.312500,2047,1989,1995
36.333336,2047,1988,1999
36.354168,2047,1988,1997
36.375000,2047,1990,1999
36.395836,2047,1992,1998
36.416668,2047,1992,1995
36.437500,2047,1991,1995
36.458336,2047,1990,1994
36.479168,2047,1990,1994
36.500000,2047,1992,1995
36.520836,2047,1995,1998
36.541668,2047,1998,1984
36.562500,2047,1985,1987
36.583336,2047,1986,1989
36.604168,2047,1987,1990
36.625000,2047,1986,1988
36.645836,2047,1985,1991
36.666668,2047,1986,1991
36.687500,2047,1988,1995
36.708336,2047,1991,1995
36.729168,2047,1996,1999
36.750000,2047,1996,1997
36.770836,2047,1996,1997
36.791668,2047,1994,1994
36.812500,2047,1990,1993
36.833336,2047,1987,1992
36.854168,2047,1997,1989
36.875000,2047,1995,1989
36.895836,2047,1991,1986
36.916668,2047,1991,1999
36.937500,2047,1995,1986
36.958336,2047,1998,1985
36.979168,2047,1999,1987
37.000000,2047,1999,1986
37.020836,2047,1996,1987
37.041668,2047,1996,1999
37.062500,2047,1996,1987
37.083336,2047,1996,1988
37.104168,2047,1992,1985
37.125000,2047,1990,1999
37.145836,2047,1988,1997
37.166668,2047,1987,1995
37.187500,2047,1986,1994
37.208336,2047,1967,1991
37.229168,2047,1967,1991
37.250000,2047,1967,1991
37.270836,2047,1966,1989
37.291668,2047,1965,1988
37.312500,2047,1963,1987
37.333336,2047,1960,1988
37.354168,2047,1956,1985
37.375000,2047,1955,1967
37.395836,2047,1954,1967
37.416668,2047,1953,1965
37.437500,2047,1953,1967
37.458336,2047,1967,1964
37.479168,2047,1965,1961
37.500000,2047,1964,1960
37.520836,2047,1963,1959
37.541668,2047,1964,1962
37.562500,2047,1966,1962
37.583336,2047,1952,1962
37.604168,2047,1955,1966
37.625000,2047,1956,1967
37.645836,2047,1957,1984
37.666668,2047,1959,1987
37.687500,2047,1958,1986
37.708336,2047,1957,1967
37.729168,2047,1955,1986
37.750000,2047,1954,1986
37.770836,2047,1967,1966
37.791668,2047,1966,1962
37.812500,2047,1967,1960
37.833336,2047,1965,1960
37.854168,2047,1964,1959
37.875000,2047,1963,1958
37.895836,2047,1961,1958
37.916668,2047,1961,1956
37.937500,2047,1960,1956
37.958336,2047,1963,1958
37.979168,2047,1964,1962
38.000000,2047,1966,1961
38.020836,2047,1966,1961
38.041668,2047,1964,1960
38.062500,2047,1961,1960
38.083336,2047,1955,1955
38.104168,2047,1935,1953
38.125000,2047,1934,1967
38.145836,2047,1934,1967
38.166668,2047,1932,1964
38.187500,2047,1933,1963
38.208336,2047,1931,1962
38.229168,2047,1933,1962
38.250000,2047,1933,1962
38.270836,2047,1954,1967
38.291668,2047,1953,1967
38.312500,2047,1956,1967
38.333336,2047,1955,1953
38.354168,2047,1955,1953
38.375000,2047,1958,1955
38.395836,2047,1958,1953
38.416668,2047,1957,1967
38.437500,2047,1957,1954
38.458336,2047,1959,1956
38.479168,2047,1954,1954
38.500000,2047,1955,1954
38.520836,2047,1954,1954
38.541668,2047,1954,1954
38.562500,2047,1958,1957
38.583336,2047,1960,1959
38.604168,2047,1964,1961
38.625000,2047,1965,1961
38.645836,2047,1952,1959
38.666668,2047,1954,1964
38.687500,2047,1957,1964
38.708336,2047,1962,1985
38.729168,2047,1962,1986
38.750000,2047,1963,1986
38.770836,2047,1962,1986
38.791668,2047,1962,1985
38.812500,2047,1960,1967
38.833336,2047,1954,1959
38.854168,2047,1954,1963
38.875000,2047,1965,1959
38.895836,2047,1965,1959
38.916668,2047,1966,1959
38.937500,2047,1967,1961
38.958336,2047,1953,1963
38.979168,2047,1955,1967
39.000000,2047,1954,1967
39.020836,2047,1966,1962
39.041668,2047,1966,1963
39.062500,2047,1952,1963
39.083336,2047,1965,1961
39.104168,2047,1966,1962
39.125000,2047,1966,1961
39.145836,2047,1965,1960
39.166668,2047,1967,1962
39.187500,2047,1954,1964
39.208336,2047,1956,1966
39.229168,2047,1958,1984
39.250000,2047,1958,1985
39.270836,2047,1957,1967
39.291668,2047,1954,1966
39.312500,2047,1965,1961
39.333336,2047,1961,1958
39.354168,2047,1960,1957
39.375000,2047,1960,1957
39.395836,2047,1963,1960
39.416668,2047,1966,1963
39.437500,2047,1955,1966
39.458336,2047,1956,1967
39.479168,2047,1959,1985
39.500000,2047,1961,1988
39.520836,2047,1963,1988
39.541668,2047,1967,1992
39.562500,2047,1985,1993
39.583336,2047,1986,1993
39.604168,2047,1987,1997
39.625000,2047,1986,1993
39.645836,2047,1984,1991
39.666668,2047,1986,1992
39.687500,2047,1985,1990
39.708336,2047,1985,1989
39.729168,2047,1967,1988
39.750000,2047,1966,1988
39.770836,2047,1966,1988
39.791668,2047,1963,1987
39.812500,2047,1961,1986
39.833336,2047,1961,1987
39.854168,2047,1962,1987
39.875000,2047,1963,1990
39.895836,2047,1965,1993
39.916668,2047,1966,1993
39.937500,2047,1967,1993
39.958336,2047,1986,1992
39.979168,2047,1986,1995
40.000000,2047,1986,1992
40.020836,2047,1985,1992
40.041668,2047,1967,1989
40.062500,2047,1965,1990
40.083336,2047,1965,1987
40.104168,2047,1965,1989
40.125000,2047,1965,1991
40.145836,2047,1967,1992
40.166668,2047,1989,1997
40.187500,2047,1993,1998
40.208336,2047,1996,1986
40.229168,2047,1997,1987
40.250000,2047,1999,1987
40.270836,2047,1984,1988
40.291668,2047,1998,1987
40.312500,2047,1995,1985
40.333336,2047,1995,1998
40.354168,2047,1996,1984
40.375000,2047,1999,1986
40.395836,2047,1984,1988
40.416668,2047,1987,1989
40.437500,2047,1989,1991
40.458336,2047,1987,1990
40.479168,2047,1986,1990
40.500000,2047,1984,1991
40.520836,2047,1997,1987
40.541668,2047,1998,1986
40.562500,2047,1998,1984
40.583336,2047,1998,1984
40.604168,2047,1998,1985
40.625000,2047,1999,1986
40.645836,2047,1998,1985
40.666668,2047,1999,1987
40.687500,2047,1999,1990
40.708336,2047,1998,1989
40.729168,2047,1995,1987
40.750000,2047,1994,1985
40.770836,2047,1992,1985
40.791668,2047,1991,1997
40.812500,2047,1989,1993
40.833336,2047,1992,1995
40.854168,2047,1995,1997
40.875000,2047,1999,1986
40.895836,2047,1988,1988
40.916668,2047,1991,1993
40.937500,2047,1991,1992
40.958336,2047,1988,1991
40.979168,2047,1999,1990
41.000000,2047,1996,1987
41.020836,2047,1995,1985
41.041668,2047,1992,1998
41.062500,2047,1991,1996
41.083336,2047,1991,1997
41.104168,2047,1989,1996
41.125000,2047,1991,1997
41.145836,2047,1990,1995
41.166668,2047,1993,1998
41.187500,2047,1995,1985
41.208336,2047,1999,1987
41.229168,2047,1986,1989
41.250000,2047,1987,1989
41.270836,2047,1987,1989
41.291668,2047,1984,1989
41.312500,2047,1997,1987
41.333336,2047,1995,1986
41.354168,2047,1994,1984
41.375000,2047,1993,1984
41.395836,2047,1994,1984
41.416668,2047,1995,1985
41.437500,2047,1997,1987
41.458336,2047,1984,1985
41.479168,2047,1987,1989
41.500000,2047,1990,1992
41.520836,2047,1991,1993
41.541668,2047,1991,1992
41.562500,2047,1991,1992
41.583336,2047,1990,1991
41.604168,2047,1988,1989
41.625000,2047,1986,1987
41.645836,2047,1985,1987
41.666668,2047,1999,1986
41.687500,2047,1997,1984
41.708336,2047,1994,1984
41.729168,2047,1993,1999
41.750000,2047,1994,1997
41.770836,2047,1994,1998
41.791668,2047,1996,1984
41.812500,2047,1996,1984
41.833336,2047,1994,1984
41.854168,2047,1991,1997
41.875000,2047,1987,1996
41.895836,2047,1984,1994
41.916668,2047,1964,1991
41.937500,2047,1962,1989
41.958336,2047,1960,1987
41.979168,2047,1959,1986
42.000000,2047,1960,1985
42.020836,2047,1962,1986
42.041668,2047,1963,1986
42.062500,2047,1965,1987
42.083336,2047,1966,1989
42.104168,2047,1962,1989
42.125000,2047,1962,1988
42.145836,2047,1959,1987
42.166668,2047,1957,1967
42.187500,2047,1956,1967
42.208336,2047,1957,1965
42.229168,2047,1956,1965
42.250000,2047,1956,1964
42.270836,2047,1957,1964
42.291668,2047,1956,1965
42.312500,2047,1955,1964
42.333336,2047,1954,1965
42.354168,2047,1953,1965
42.375000,2047,1967,1963
42.395836,2047,1965,1962
42.416668,2047,1963,1959
42.437500,2047,1961,1957
42.458336,2047,1958,1955
42.479168,2047,1958,1954
42.500000,2047,1958,1955
42.520836,2047,1961,1958
42.541668,2047,1963,1961
42.562500,2047,1965,1963
42.583336,2047,1966,1963
42.604168,2047,1963,1961
42.625000,2047,1963,1960
42.645836,2047,1960,1957
42.666668,2047,1957,1954
42.687500,2047,1955,1954
42.708336,2047,1954,1953
42.729168,2047,1953,1967
42.750000,2047,1953,1967
42.770836,2047,1953,1966
42.791668,2047,1952,1966
42.812500,2047,1935,1967
42.833336,2047,1935,1967
42.854168,2047,1933,1963
42.875000,2047,1934,1964
42.895836,2047,1935,1965
42.916668,2047,1935,1966
42.937500,2047,1955,1952
42.958336,2047,1957,1953
42.979168,2047,1962,1958
43.000000,2047,1967,1963
43.020836,2047,1954,1965
43.041668,2047,1957,1967
43.062500,2047,1957,1967
43.083336,2047,1954,1963
43.104168,2047,1963,1959
43.125000,2047,1957,1955
43.145836,2047,1934,1964
43.166668,2047,1927,1959
43.187500,2047,1927,1959
43.208336,2047,1928,1961
43.229168,2047,1935,1967
43.250000,2047,1959,1956
43.270836,2047,1952,1962
43.291668,2047,1961,1967
43.312500,2047,1966,1988
43.333336,2047,1987,1993
43.354168,2047,1984,1992
43.375000,2047,1964,1989
43.395836,2047,1955,1966
43.416668,2047,1962,1959
43.437500,2047,1953,1953
43.458336,2047,1929,1961
43.479168,2047,1925,1956
43.500000,2047,1922,1953
43.520836,2047,1925,1956
43.541668,2047,1930,1963
43.562500,2047,1955,1952
43.583336,2047,1964,1962
43.604168,2047,1955,1967
43.625000,2047,1962,1990
43.645836,2047,1966,1994
43.666668,2047,1967,1993
43.687500,2047,1985,1993
43.708336,2047,1967,1991
43.729168,2047,1962,1987
43.750000,2047,1955,1965
43.770836,2047,1965,1958
43.791668,2047,1960,1953
43.812500,2047,1957,1967
43.833336,2047,1954,1967
43.854168,2047,1955,1953
43.875000,2047,1959,1956
43.895836,2047,1965,1961
43.916668,2047,1952,1966
43.937500,2047,1956,1967
43.958336,2047,1959,1986
43.979168,2047,1961,1985
44.000000,2047,1960,1986
44.020836,2047,1963,1988
44.041668,2047,1962,1987
44.062500,2047,1962,1987
44.083336,2047,1957,1964
44.104168,2047,1967,1959
44.125000,2047,1961,1955
44.145836,2047,1953,1966
44.166668,2047,1929,1960
44.187500,2047,1927,1961
44.208336,2047,1927,1962
44.229168,2047,1952,1952
44.250000,2047,1964,1961
44.270836,2047,1963,1984
44.291668,2047,1988,1993
44.312500,2047,1992,1997
44.333336,2047,1991,1993
44.354168,2047,1988,1993
44.375000,2047,1967,1990
44.395836,2047,1961,1986
44.416668,2047,1957,1986
44.437500,2047,1964,1962
44.458336,2047,1959,1955
44.479168,2047,1956,1953
44.500000,2047,1954,1967
44.520836,2047,1953,1952
44.541668,2047,1955,1952
44.562500,2047,1958,1958
44.583336,2047,1963,1959
44.604168,2047,1956,1964
44.625000,2047,1960,1985
44.645836,2047,1959,1985
44.666668,2047,1956,1967
44.687500,2047,1952,1966
44.708336,2047,1961,1961
44.729168,2047,1955,1955
44.750000,2047,1935,1966
44.770836,2047,1934,1965
44.791668,2047,1952,1967
44.812500,2047,1954,1966
44.833336,2047,1955,1967
44.854168,2047,1955,1953
44.875000,2047,1957,1955
44.895836,2047,1959,1957
44.916668,2047,1966,1965
44.937500,2047,1954,1967
44.958336,2047,1962,1988
44.979168,2047,1986,1993
45.000000,2047,1990,1996
45.020836,2047,1989,1996
45.041668,2047,1985,1991
45.062500,2047,1965,1989
45.083336,2047,1959,1966
45.104168,2047,1958,1966
45.125000,2047,1959,1966
45.145836,2047,1957,1965
45.166668,2047,1961,1987
45.187500,2047,1965,1990
45.208336,2047,1966,1993
45.229168,2047,1986,1997
45.250000,2047,1991,1985
45.270836,2047,1996,1989
45.291668,2047,1988,1992
45.312500,2047,1989,1991
45.333336,2047,1988,1989
45.354168,2047,1986,1989
45.375000,2047,1996,1984
45.395836,2047,1986,1992
45.416668,2047,1966,1990
45.437500,2047,1962,1987
45.458336,2047,1959,1985
45.479168,2047,1958,1986
45.500000,2047,1955,1965
45.520836,2047,1957,1967
45.541668,2047,1957,1967
45.562500,2047,1954,1965
45.583336,2047,1967,1960
45.604168,2047,1966,1962
45.625000,2047,1953,1965
45.645836,2047,1956,1966
45.666668,2047,1958,1967
45.687500,2047,1963,1985
45.708336,2047,1965,1987
45.729168,2047,1967,1990
45.750000,2047,1965,1988
45.770836,2047,1964,1988
45.791668,2047,1961,1984
45.812500,2047,1962,1985
45.833336,2047,1960,1985
45.854168,2047,1959,1967
45.875000,2047,1960,1967
45.895836,2047,1963,1986
45.916668,2047,1965,1989
45.937500,2047,1967,1990
45.958336,2047,1967,1991
45.979168,2047,1967,1992
46.000000,2047,1987,1995
46.020836,2767,1986,1995
46.041668,3385,1985,1992
46.062500,3813,1965,1989
46.083336,3988,1965,1988
46.104168,3888,1964,1989
46.125000,3525,1993,1990
46.145836,2952,2094,1991
46.166668,2250,2308,2057
46.187500,1519,2720,2218
46.208336,863,2979,2434
46.229168,375,2979,2571
46.250000,126,2858,2560
46.270836,150,1960,2246
46.291668,444,942,1729
46.312500,966,942,1070
46.333336,2047,943,960
46.354168,2047,942,961
46.375000,2047,943,960
46.395836,2047,942,960
46.416668,2047,1830,1314
46.437500,2047,2980,2211
46.458336,2047,2979,2991
46.479168,2047,2980,2991
46.500000,2047,2979,2991
46.520836,2047,2980,2991
46.541668,2047,2980,2991
46.562500,2047,2628,2990
46.583336,2047,942,2024
46.604168,2047,943,960
46.625000,2047,942,960
46.645836,2047,942,961
46.666668,2047,942,960
46.687500,2047,942,961
46.708336,2047,1646,1057
46.729168,2047,2980,1900
46.750000,2047,2980,2702
46.770836,2047,2980,2991
46.791668,2047,2980,2990
46.812500,2047,2980,2991
46.833336,2047,2980,2991
46.854168,2047,2980,2991
46.875000,2047,2980,2991
46.895836,2047,2980,2990
46.916668,2047,2442,2530
46.937500,2047,943,1671
46.958336,2047,943,960
46.979168,2047,943,961
47.000000,2047,943,960
47.020836,2047,942,943
47.041668,2047,1103,960
47.062500,2047,1992,1347
47.083336,2047,2690,1867
47.104168,2047,2923,2216
47.125000,2047,2980,2508
47.145836,2047,2980,2760
47.166668,2047,2980,2991
47.187500,2047,2980,2991
47.208336,2047,2980,2991
47.229168,2047,2980,2991
47.250000,2047,2991,2849
47.270836,2047,1835,2246
47.291668,2047,943,1472
47.312500,2047,943,960
47.333336,2047,943,960
47.354168,2047,943,961
47.375000,2047,943,960
47.395836,2047,1390,1191
47.416668,2047,2029,1606
47.437500,2047,2470,1985
47.458336,2047,2694,2308
47.479168,2047,2950,2542
47.500000,2047,2980,2728
47.520836,2047,2980,2881
47.541668,2047,2980,2955
47.562500,2047,2980,2925
47.583336,2047,2980,2754
47.604168,2047,2564,2444
47.625000,2047,1542,1999
47.645836,2047,943,1572
47.666668,2047,942,1217
47.687500,2047,943,995
47.708336,2047,943,999
47.729168,2047,1038,1166
47.750000,2047,1486,1409
47.770836,2047,1957,1703
47.791668,2047,2343,1991
47.812500,2047,2639,2220
47.833336,2047,2917,2401
47.854168,2047,2980,2534
47.875000,2047,2981,2626
47.895836,2047,2980,2637
47.916668,2047,2981,2571
47.937500,2047,2753,2412
47.958336,2047,2213,2189
47.979168,2047,1536,1923
48.000000,2047,1007,1647
48.020836,2047,943,1411
48.041668,2047,943,1255
48.062500,2047,943,1248
48.083336,2047,1158,1359
48.104168,2047,1569,1579
48.125000,2047,1986,1839
48.145836,2047,2375,2083
48.166668,2047,2695,2285
48.187500,2047,2895,2438
48.208336,2047,2981,2504
48.229168,2047,2980,2498
48.250000,2047,2888,2434
48.270836,2047,2662,2308
48.291668,2047,2341,2186
48.312500,2047,1964,2016
48.333336,2047,1605,1859
48.354168,2047,1293,1703
48.375000,2047,1133,1581
48.395836,2047,1095,1505
48.416668,2047,1189,1515
48.437500,2047,1445,1610
48.458336,2047,1762,1743
48.479168,2047,2119,1923
48.500000,2047,2409,2123
48.520836,2047,2599,2255
48.541668,2047,2696,2312
48.562500,2047,2691,2340
48.583336,2047,2604,2305
48.604168,2047,2473,2216
48.625000,2047,2277,2148
48.645836,2047,2084,2057
48.666668,2047,1834,1934
48.687500,2047,1635,1837
48.708336,2047,1473,1762
48.729168,2047,1386,1675
48.750000,2047,1414,1669
48.770836,2047,1517,1705
48.791668,2047,1736,1793
48.812500,2047,1986,1891
48.833336,2047,2247,2027
48.854168,2047,2410,2127
48.875000,2047,2511,2185
48.895836,2047,2501,2214
48.916668,2047,2405,2187
48.937500,2047,2307,2125
48.958336,2047,2190,2088
48.979168,2047,2083,2057
49.000000,2047,1956,2018
49.020836,2047,1862,1984
49.041668,2047,1766,1902
49.062500,2047,1673,1831
49.083336,2047,1604,1764
49.104168,2047,1606,1743
49.125000,2047,1668,1743
49.145836,2047,1805,1826
49.166668,2047,1993,1930
49.187500,2047,2208,2024
49.208336,2047,2346,2123
49.229168,2047,2439,2190
49.250000,2047,2415,2185
49.270836,2047,2337,2158
49.291668,2047,2216,2126
49.312500,2047,2085,2056
49.333336,2047,1967,2023
49.354168,2047,1859,1960
49.375000,2047,1801,1920
49.395836,2047,1761,1900
49.416668,2047,1760,1856
49.437500,2047,1763,1856
49.458336,2047,1800,1862
49.479168,2047,1871,1889
49.500000,2047,1952,1933
49.520836,2047,2095,1984
49.541668,2047,2189,2028
49.562500,2047,2243,2083
49.583336,2047,2255,2090
49.604168,2047,2209,2088
49.625000,2047,2157,2095
49.645836,2047,2093,2056
49.666668,2047,2027,2031
49.687500,2047,1963,1996
49.708336,2047,1889,1959
49.729168,2047,1834,1921
49.750000,2047,1796,1890
49.770836,2047,1796,1889
49.791668,2047,1800,1888
49.812500,2047,1856,1893
49.833336,2047,1956,1926
49.854168,2047,2029,1964
49.875000,2047,2122,2017
49.895836,2047,2187,2051
49.916668,2047,2181,2058
49.937500,2047,2159,2082
49.958336,2047,2119,2082
49.979168,2047,2089,2052
50.000000,2047,2031,2031
50.020836,2047,1985,2017
50.041668,2047,1928,1985
50.062500,2047,1903,1956
50.083336,2047,1867,1932
50.104168,2047,1826,1901
50.125000,2047,1826,1898
50.145836,2047,1867,1922
50.166668,2047,1896,1934
50.187500,2047,1957,1955
50.208336,2047,2017,1958
50.229168,2047,2093,1991
50.250000,2047,2115,1995
50.270836,2047,2119,2019
50.291668,2047,2092,2055
50.312500,2047,2092,2050
50.333336,2047,2056,2063
50.354168,2047,2017,2023
50.375000,2047,1960,1991
50.395836,2047,1929,1955
50.416668,2047,1867,1934
50.437500,2047,1833,1897
50.458336,2047,1837,1892
50.479168,2047,1829,1895
